관리기관명,소재지도로명주소,소재지지번주소,설치목적구분,카메라대수,카메라화소수,촬영방면정보,보관일수,설치연월,관리기관전화번호,위도,경도,데이터기준일자
경기도 가평군청,,경기도 가평군 청평면 삼회리 202-3(삼회1리마을회관),생활방범,2,200,도로방면,30,2018-11,031-580-2571,37.69644471,127.3917665,2021-06-28
경기도 가평군청,,경기도 가평군 청평면 삼회리 475-16(삼회2리마을회관),생활방범,1,200,도로방면,30,2018-11,031-580-2571,37.69644471,127.3917665,2021-06-28
경기도 가평군청,,경기도 가평군 청평면 삼회리 617-5(가일미술관 앞),차량방범,2,150,도로방면,30,2010-06,031-580-2571,37.65799072,127.3785947,2021-06-28
경기도 가평군청,,경기도 가평군 청평면 삼회리 617-5(가일미술관앞),생활방범,1,200,도로방면,30,2016-07,031-580-2571,37.65799072,127.3785947,2021-06-28
경기도 가평군청,,경기도 가평군 청평면 삼회리 산 4-1(신 청평대교),생활방범,1,200,도로방면,30,2016-12,031-580-2571,37.7185472,127.4106227,2021-06-28
경기도 가평군청,,경기도 가평군 청평면 삼회리 산 85-10(야밀고개(정상)),재난재해,1,200,360도전방면,30,,031-580-2141,37.65273925,127.3824895,2021-06-28
경기도 가평군청,,경기도 가평군 청평면 삼회리 산4-1(신청평대교),차량방범,2,200,도로방면,30,2016-06,031-580-2571,37.7185472,127.4106227,2021-06-28
경기도 가평군청,,경기도 가평군 청평면 상천리 1293-3(상천역),생활방범,3,200,도로방면,30,2016-06,031-580-2571,37.77080863,127.4527286,2021-06-28
경기도 가평군청,경기도 가평군 청평면 상천역로19번길 38,경기도 가평군 청평면 상천리 1299-4번지,어린이보호,3,300,"초등학교정문방향, 360도전방면",30,2013-06,031-580-2571,37.77003188,127.4560709,2021-06-28
경기도 가평군청,,경기도 가평군 청평면 상천리 1354-4(상천리경로당(마을회관)),생활방범,3,200,도로방면,30,2013-08,031-580-2571,37.76939382,127.4588129,2021-06-28
경기도 가평군청,,경기도 가평군 청평면 상천리 1523-2(호명산주차장),생활방범,2,200,도로방면,30,2018-11,031-580-2571,37.76131015,127.4838037,2021-06-28
경기도 가평군청,,경기도 가평군 청평면 상천리 1737-4(평원산업),생활방범,2,200,도로방면,30,2018-06,031-580-2571,37.77385327,127.4610842,2021-06-28
경기도 가평군청,,경기도 가평군 청평면 상천리 1761-22(상지로 갈림길),생활방범,2,200,도로방면,30,2018-12,031-580-2571,37.77015959,127.4583724,2021-06-28
경기도 가평군청,,경기도 가평군 청평면 상천리 239-1(봉녀수제비교차로),생활방범,3,200,도로방면,30,2018-06,031-580-2571,37.780315,127.464855,2021-06-28
경기도 가평군청,,경기도 가평군 청평면 청평리 128-8(청평역2번출구),생활방범,3,200,도로방면,30,2018-11,031-580-2571,37.73401902,127.4250627,2021-06-28
경기도 가평군청,,경기도 가평군 청평면 청평리 164-5(청평4·6리 자율방범대본부),생활방범,3,200,도로방면,30,2017-06,031-580-2571,37.73753679,127.4313336,2021-06-28
경기도 가평군청,,경기도 가평군 청평면 청평리 195-5(구역사 앞),쓰레기단속,1,200,360도전방면,30,2015-07,031-580-2550,37.7373027,127.4271423,2021-06-28
경기도 가평군청,,경기도 가평군 청평면 청평리 319-1(청평면사무소입구),생활방범,2,200,도로방면,30,2016-12,031-580-2571,37.74190189,127.4240088,2021-06-28
경기도 가평군청,,경기도 가평군 청평면 청평리 319-117(청평유송빌라),생활방범,4,200,도로방면,30,2016-07,031-580-2571,37.7388492,127.4231986,2021-06-28
경기도 가평군청,,경기도 가평군 청평면 청평리 319-92(365마트앞),생활방범,1,200,도로방면,30,2016-07,031-580-2571,37.74080561,127.4228399,2021-06-28
경기도 가평군청,,경기도 가평군 청평면 청평리 333-1(청평면사무소앞공원),생활방범,2,200,공원방향,30,2018-06,031-580-2571,37.7404481,127.4241733,2021-06-28
경기도 가평군청,,경기도 가평군 청평면 청평리 388-1(청평구역사CU앞),생활방범,4,300,도로방면,30,2016-06,031-580-2571,37.73723753,127.4228314,2021-06-28
경기도 가평군청,경기도 가평군 가평읍 북한강변로 321,경기도 가평군 가평읍 금대리 154번지,생활방범,1,200,도로방면,30,2017-06,031-580-2571,37.7575806,127.5359277,2021-06-28
경기도 가평군청,,경기도 가평군 가평읍 대곡리 285-4(홍익어린이집),어린이보호,4,200,"어린이집방향, 360도전방면",30,2016-06,031-580-2571,37.82851047,127.5094636,2021-06-28
경기도 가평군청,,경기도 가평군 가평읍 대곡리 347(가평체육공원2),생활방범,4,200,"체육공원내, 360도전방면",30,2012-07,031-580-2571,37.82316079,127.5089088,2021-06-28
경기도 가평군청,,경기도 가평군 가평읍 대곡리 42-13(자라섬회전교차로),생활방범,2,200,도로방면,30,2018-06,031-580-2571,37.82048141,127.5188294,2021-06-28
경기도 가평군청,,경기도 가평군 가평읍 대곡리 88-5(가평오거리),생활방범,4,200,도로방면,30,2016-07,031-580-2571,37.82070132,127.5136493,2021-06-28
경기도 가평군청,경기도 가평군 가평읍 오목내길 6-28,경기도 가평군 가평읍 대곡리 69-33번지,교통단속,2,130,양방향,30,,031-580-2076,37.8181647,127.514808,2021-06-28
경기도 가평군청,,경기도 가평군 가평읍 마장리 715-2(마장리버스정류장),생활방범,1,200,도로방면,30,2016-12,031-580-2571,37.8533011,127.5063737,2021-06-28
경기도 가평군청,,경기도 가평군 가평읍 개곡리 산 334(경춘공원),쓰레기단속,1,200,360도전방면,30,2015-07,031-580-2550,37.8340132,127.5063827,2021-06-28
경기도 가평군청,,경기도 가평군 가평읍 대곡리 131-2(대성음향앞),생활방범,1,200,도로방면,30,2016-12,031-580-2571,37.82233129,127.5144962,2021-06-28
경기도 가평군청,,경기도 가평군 가평읍 대곡리 164-4(가평구역전),생활방범,4,300,도로방면,30,2016-06,031-580-2571,37.82484658,127.5139246,2021-06-28
경기도 가평군청,,경기도 가평군 가평읍 대곡리 171-13(가평축협뒤),생활방범,2,200,도로방면,30,2016-07,031-580-2571,37.82436026,127.5145736,2021-06-28
경기도 가평군청,,경기도 가평군 가평읍 대곡리 194-2(읍내파출소),생활방범,3,200,도로방면,30,2016-09,031-580-2571,37.82394369,127.5157755,2021-06-28
경기도 가평군청,,경기도 가평군 가평읍 대곡리 239-2(흥농종묘앞 삼거리),생활방범,4,200,도로방면,30,2016-07,031-580-2571,37.82590302,127.5139759,2021-06-28
경기도 가평군청,,경기도 가평군 가평읍 대곡리 258-6(가평운동장사거리),생활방범,4,200,도로방면,30,2016-07,031-580-2571,37.82639867,127.5117965,2021-06-28
경기도 가평군청,경기도 가평군 가평읍 광장로 10,경기도 가평군 가평읍 대곡리 273번지,생활방범,1,200,도로방면,30,2017-06,031-580-2571,37.8273431,127.5101851,2021-06-28
경기도 가평군청,,경기도 가평군 가평읍 대곡리 312-8(한석봉체육관앞),생활방범,3,200,도로방면,30,2018-11,031-580-2571,37.82601183,127.5082977,2021-06-28
경기도 가평군청,경기도 가평군 가평읍 문화로 131,경기도 가평군 가평읍 대곡리 316번지,생활방범,3,200,"체육공원내, 360도전방면",30,2012-07,031-580-2571,37.825131,127.5062327,2021-06-28
경기도 가평군청,,경기도 가평군 가평읍 대곡리 347-1(가평체육공원3),생활방범,4,200,"체육공원내, 360도전방면",30,2012-07,031-580-2571,37.82241136,127.507857,2021-06-28
경기도 가평군청,,경기도 가평군 가평읍 대곡리 377-1(우림필유단지앞),생활방범,2,200,도로방면,30,2018-06,031-580-2571,37.82278595,127.5109632,2021-06-28
경기도 가평군청,,경기도 가평군 가평읍 대곡리 419-1(사그막입구),생활방범,2,200,도로방면,30,2013-08,031-580-2571,37.81744238,127.5083861,2021-06-28
경기도 가평군청,,경기도 가평군 가평읍 대곡리 48-2(자라섬제방),재난재해,1,200,360도전방면,30,,031-580-2141,37.81957205,127.5193117,2021-06-28
경기도 가평군청,,경기도 가평군 가평읍 대곡리 67-2(가평고뒷길),생활방범,2,200,도로방면,30,2016-09,031-580-2571,37.81748249,127.5144396,2021-06-28
경기도 가평군청,,경기도 가평군 가평읍 대곡리 산 104(가평하천),재난재해,1,200,360도전방면,30,,031-580-2141,37.82434902,127.5183875,2021-06-28
경기도 가평군청,,경기도 가평군 가평읍 대곡리 산 4-1(가평체육공원4),생활방범,3,200,"체육공원내, 360도전방면",30,2012-07,031-580-2571,37.82189781,127.5057141,2021-06-28
경기도 가평군청,경기도 가평군 가평읍 오리나무길 16,경기도 가평군 가평읍 대곡리 238-3번지,교통단속,2,41,양방향,30,,031-580-2076,37.8261199,127.5139497,2021-06-28
경기도 가평군청,,경기도 가평군 가평읍 마장리 358-5(마장초등학교앞),어린이보호,3,300,"초등학교정문방향, 360도전방면",30,2013-07,031-580-2571,37.8597456,127.5151229,2021-06-28
경기도 가평군청,,경기도 가평군 가평읍 마장리 373-1(마장2리마을입구),생활방범,1,200,도로방면,30,2016-12,031-580-2571,37.85881304,127.5167067,2021-06-28
경기도 가평군청,,경기도 가평군 가평읍 마장리 983(늘푸른유원지),재난재해,1,200,360도전방면,30,,031-580-2141,37.85727145,127.5200231,2021-06-28
경기도 가평군청,,경기도 가평군 가평읍 복장리 338-4(복장삼거리),생활방범,1,200,도로방면,30,2016-12,031-580-2571,37.73664404,127.5052395,2021-06-28
경기도 가평군청,,경기도 가평군 가평읍 복장리 산 165-3(고성리고개),재난재해,1,200,360도전방면,30,,031-580-2141,37.7248354,127.4991153,2021-06-28
경기도 가평군청,,경기도 가평군 가평읍 개곡리 산 344(줄길리 마을입구),생활방범,2,200,도로방면,30,2016-07,031-580-2571,37.84828304,127.5498354,2021-06-28
경기도 가평군청,,경기도 가평군 가평읍 경반리 194-2(경반리 마을회관),생활방범,1,200,도로방면,30,2017-06,031-580-2571,37.83302023,127.4921547,2021-06-28
경기도 가평군청,,경기도 가평군 가평읍 경반리 산 151-3(짚라인가평입구),생활방범,1,200,도로방면,30,2018-12,031-580-2571,37.83449044,127.4663768,2021-06-28
경기도 가평군청,,경기도 가평군 가평읍 경반리 산 156-7(경반2교),생활방범,2,200,도로방면,30,2018-12,031-580-2571,37.83122934,127.4707811,2021-06-28
경기도 가평군청,,경기도 가평군 가평읍 경반리 산 190(산림문화체험관입구),생활방범,2,200,도로방면,30,2018-12,031-580-2571,37.83621422,127.4652361,2021-06-28
경기도 가평군청,,경기도 가평군 청평면 청평리 92-24(안전유원지(청평)),재난재해,1,200,360도전방면,30,,031-580-2141,37.73262409,127.4210024,2021-06-28
경기도 가평군청,,경기도 가평군 청평면 청평리 92-5(안전유원지),생활방범,3,300,도로방면,30,2015-11,031-580-2571,37.73284744,127.4223759,2021-06-28
경기도 가평군청,경기도 가평군 청평면 청평중앙로 72,경기도 가평군 청평면 청평리 315-1번지,교통단속,4,130,세방향,30,,031-580-2076,37.7393911,127.4209954,2021-06-28
경기도 가평군청,경기도 가평군 청평면 청평중앙로 35,경기도 가평군 청평면 청평리 462-2번지,교통단속,3,130,양방향,30,,031-580-2076,37.7373294,127.4185812,2021-06-28
경기도 가평군청,경기도 가평군 청평면 청평중앙로 17,경기도 가평군 청평면 청평리 452-5번지,교통단속,3,130,양방향,30,,031-580-2076,37.7363757,127.4168596,2021-06-28
경기도 가평군청,경기도 가평군 청평면 청평중앙로 51,경기도 가평군 청평면 청평리 465-8번지,교통단속,4,130,세방향,30,,031-580-2076,37.7381965,127.4199325,2021-06-28
경기도 가평군청,,경기도 가평군 청평면 하천리 280-3(하천교차로),차량방범,2,200,도로방면,30,2016-06,031-580-2571,37.75381071,127.4349428,2021-06-28
경기도 가평군청,,경기도 가평군 청평면 하천리 496-21(청평검문소),재난재해,1,200,360도전방면,30,,031-580-2141,37.74690141,127.4285433,2021-06-28
경기도 가평군청,,경기도 가평군 청평면 하천리 600-27(청평마지기마을입구),생활방범,3,300,도로방면,30,2015-11,031-580-2571,37.74774733,127.4349635,2021-06-28
경기도 가평군청,,경기도 가평군 청평면 호명리 192-9(호명리 버스정류장 앞),생활방범,1,200,도로방면,30,2017-06,031-580-2571,37.71696666,127.4587392,2021-06-28
경기도 가평군청,,경기도 가평군 가평읍 개곡리 254(개곡리 종점),생활방범,2,200,도로방면,30,2019-05,031-580-2571,37.8714199,127.5617999,2021-06-28
경기도 가평군청,,경기도 가평군 가평읍 읍내리 412-4(장터뒷길),생활방범,3,200,도로방면,30,2019-05,031-580-2571,37.830605,127.515139,2021-06-28
경기도 가평군청,,경기도 가평군 가평읍 읍내리 474-9(농협 가평군지부앞),생활방범,4,200,도로방면,30,2019-05,031-580-2571,37.829511,127.5139799,2021-06-28
경기도 가평군청,,경기도 가평군 설악면 사룡리 184-7(수영인의 마을입구),생활방범,3,200,도로방면,30,2019-05,031-580-2571,37.698359,127.4898199,2021-06-28
경기도 가평군청,,경기도 가평군 설악면 신천리 349-3(운전전문학원입구),생활방범,3,200,도로방면,30,2019-05,031-580-2571,37.671986,127.490741,2021-06-28
경기도 가평군청,,경기도 가평군 청평면 상천리 955-7(상천3리마을회관),생활방범,2,200,도로방면,30,2019-05,031-580-2571,37.7904319,127.4316979,2021-06-28
경기도 가평군청,,경기도 가평군 청평면 청평리 151-35(호명산등산로입구),생활방범,3,200,도로방면,30,2019-05,031-580-2571,37.7327889,127.4283189,2021-06-28
경기도 가평군청,,경기도 가평군 상면 덕현리 497-45(새터마을 입구),생활방범,1,200,도로방면,30,2019-05,031-580-2571,37.7658189,127.390015,2021-06-28
경기도 가평군청,,경기도 가평군 상면 율길리 452-35(장막동길 입구),생활방범,3,200,도로방면,30,2019-05,031-580-2571,37.8392899,127.2869069,2021-06-28
경기도 가평군청,,경기도 가평군 상면 율길리 산 71(운악산 포도유통센터후문),생활방범,2,200,도로방면,30,2019-05,031-580-2571,37.8289499,127.2941739,2021-06-28
경기도 가평군청,,경기도 가평군 조종면 신하리 326-2(이문안교),생활방범,5,200,도로방면,30,2019-05,031-580-2571,37.8337749,127.3596779,2021-06-28
경기도 가평군청,,경기도 가평군 북면 화악리 463-2(화악삼거리),생활방범,2,200,도로방면,30,2019-05,031-580-2571,37.9254289,127.5667549,2021-06-28
경기도 가평군청,,경기도 가평군 가평읍 경반리 56-1(경반교),생활방범,3,200,도로방면,30,2019-06,031-580-2571,37.8319519,127.4960049,2021-06-28
경기도 가평군청,,경기도 가평군 가평읍 달전리 591-6(가평역앞),생활방범,3,200,도로방면,30,2019-06,031-580-2571,37.8137369,127.5116849,2021-06-28
경기도 가평군청,,경기도 가평군 가평읍 이화리 19-4(이화교삼거리),생활방범,3,200,도로방면,30,2019-06,031-580-2571,37.7978569,127.5181289,2021-06-28
경기도 가평군청,,경기도 가평군 설악면 방일리 220-7(방일2리마을회관),생활방범,3,200,도로방면,30,2019-06,031-580-2571,37.6231959,127.4952899,2021-06-28
경기도 가평군청,,경기도 가평군 설악면 회곡리 산 104-23(뾰루봉 등산로 입구),생활방범,2,200,도로방면,30,2019-06,031-580-2571,37.7211069,127.4278719,2021-06-28
경기도 가평군청,,경기도 가평군 청평면 상천리 산 233-1(구빛고개 정상),생활방범,2,200,도로방면,30,2019-06,031-580-2571,37.7881899,127.4685949,2021-06-28
경기도 가평군청,,경기도 가평군 청평면 청평리 688-1(청평고등학교 앞),생활방범,3,200,도로방면,30,2019-06,031-580-2571,37.7308979,127.4140999,2021-06-28
경기도 가평군청,,경기도 가평군 상면 덕현리 197(구정동 마을),생활방범,1,200,도로방면,30,2019-06,031-580-2571,37.7614639,127.4002529,2021-06-28
경기도 가평군청,,경기도 가평군 조종면 마일리 산 157-1(마일리 버스종점),생활방범,2,200,도로방면,30,2019-06,031-580-2571,37.859456,127.389031,2021-06-28
경기도 가평군청,,경기도 가평군 북면 백둔리 393-4(연인산입구 버스정류장),생활방범,2,200,도로방면,30,2019-06,031-580-2571,37.9030979,127.4580919,2021-06-28
경기도 가평군청,,경기도 가평군 가평읍 달전리 109-4(남이섬입구),생활방범,3,200,도로방면,30,2019-11,031-580-2571,37.805879,127.525999,2021-06-28
경기도 가평군청,,경기도 가평군 가평읍 마장리 850-1(마장 아랫말삼거리),생활방범,2,200,도로방면,30,2019-11,031-580-2571,37.8482499,127.4984499,2021-06-28
경기도 가평군청,,경기도 가평군 가평읍 승안리 산 76(계곡여행펜션앞),생활방범,1,200,도로방면,30,2019-11,031-580-2571,37.8595799,127.4716399,2021-06-28
경기도 가평군청,,경기도 가평군 가평읍 읍내리 317-5(뚝방길 주차장),생활방범,2,200,도로방면,30,2019-11,031-580-2571,37.8263899,127.517699,2021-06-28
경기도 가평군청,경기도 가평군 북면 가화로 2089-47,경기도 가평군 북면 도대리 623(명지산 주차장 앞),생활방범,3,200,도로방면,30,2019-11,031-580-2571,37.9352299,127.486499,2021-06-28
경기도 가평군청,경기도 가평군 상면 안말길 74-31,경기도 가평군 상면 상동리 361(불기종점),생활방범,1,200,도로방면,30,2019-11,031-580-2571,37.782299,127.2922599,2021-06-28
경기도 가평군청,,경기도 가평군 상면 태봉리 722(태봉리 아랫벌),생활방범,3,200,도로방면,30,2019-11,031-580-2571,37.7963999,127.3361499,2021-06-28
경기도 가평군청,,경기도 가평군 상면 행현리 942-1(행현1리 마을회관),생활방범,2,200,도로방면,30,2019-11,031-580-2571,37.7737699,127.3636199,2021-06-28
경기도 가평군청,,경기도 가평군 설악면 방일리 249-3(방일3리 입구),생활방범,2,200,도로방면,30,2019-11,031-580-2571,37.6214899,127.4955399,2021-06-28
경기도 가평군청,경기도 가평군 설악면 봉미산안길7번길 1-6,경기도 가평군 설악면 설곡리 704-7(설곡보건진료소),생활방범,1,200,도로방면,30,2019-11,031-580-2571,37.6211199,127.5183499,2021-06-28
경기도 가평군청,,경기도 가평군 설악면 송산리 839-4(송산2리마을),생활방범,1,200,도로방면,30,2019-11,031-580-2571,37.712599,127.531299,2021-06-28
경기도 가평군청,경기도 가평군 조종면 현창로 10,경기도 가평군 조종면 현리 413-1(맹호회관),생활방범,2,200,도로방면,30,2018-11,031-580-2571,37.8158679,127.349853,2021-06-28
경기도 가평군청,경기도 가평군 조종면 조종희망로26번길 16,경기도 가평군 조종면 현리 420-12번지,생활방범,3,200,"공원내, 360도전방면",30,2012-07,031-580-2571,37.8185011,127.352238,2021-06-28
경기도 가평군청,,경기도 가평군 조종면 현리 420-20(조종생활체육공원3),생활방범,3,200,"공원내, 360도전방면",30,2018-11,031-580-2571,37.81673395,127.3521958,2021-06-28
경기도 가평군청,,경기도 가평군 조종면 현리 420-65(조종생활체육공원),생활방범,3,200,"공원내, 360도전방면",30,2011-07,031-580-2571,37.81683944,127.3527927,2021-06-28
경기도 가평군청,,경기도 가평군 조종면 현리 477-308(조종면어린이공원),생활방범,4,200,"공원내, 360도전방면",30,2016-06,031-580-2571,37.81137189,127.350772,2021-06-28
경기도 가평군청,,경기도 가평군 조종면 현리 513-1(부대앞회전교차로),생활방범,2,200,도로방면,30,2018-06,031-580-2571,37.80673526,127.3542632,2021-06-28
경기도 가평군청,,경기도 가평군 조종면 현리 567-5(조종면어린이집),생활방범,2,200,도로방면,30,2018-11,031-580-2571,37.81841004,127.3536882,2021-06-28
경기도 가평군청,,경기도 가평군 조종면 현리 598(대원장여관),생활방범,2,200,도로방면,30,2018-06,031-580-2571,37.81676266,127.3512557,2021-06-28
경기도 가평군청,경기도 가평군 청평면 구청평로 56,경기도 가평군 청평면 청평리 626-8번지 청평로얄아파트,쓰레기단속,1,200,360도전방면,30,2015-07,031-580-2550,37.7322767,127.4133679,2021-06-28
경기도 가평군청,,경기도 가평군 청평면 고성리 424-2(고재마을 입구),생활방범,1,200,도로방면,30,2017-06,031-580-2571,37.71544449,127.5017768,2021-06-28
경기도 가평군청,,경기도 가평군 청평면 대성리 104-11(약수터슈퍼앞삼거리),생활방범,1,200,도로방면,30,2016-12,031-580-2571,37.72096411,127.4029859,2021-06-28
경기도 가평군청,,경기도 가평군 청평면 대성리 30-3(북한강생태공원),재난재해,2,200,360도전방면,30,,031-580-2141,37.72434389,127.4083087,2021-06-28
경기도 가평군청,,경기도 가평군 청평면 대성리 335-23(안대성길),생활방범,2,200,도로방면,30,2016-09,031-580-2571,37.69642757,127.3822908,2021-06-28
경기도 가평군청,경기도 가평군 청평면 대성강변길 25-45,경기도 가평군 청평면 대성리 392-46(대성리 관광유원지),생활방범,2,200,도로방면,30,2017-06,031-580-2571,37.6815443,127.3805749,2021-06-28
경기도 가평군청,경기도 가평군 청평면 경춘로 75,경기도 가평군 청평면 대성리 399-16번지,어린이보호,4,300,"초등학교정문방향, 360도전방면",30,2015-07,031-580-2571,37.6830392,127.3776562,2021-06-28
경기도 가평군청,,경기도 가평군 청평면 대성리 569-9(대성리MT촌),생활방범,1,200,도로방면,30,2018-11,031-580-2571,37.68978097,127.3677297,2021-06-28
경기도 가평군청,경기도 가평군 청평면 은행나무길 8-29,경기도 가평군 청평면 대성리 591-6번지,생활방범,1,200,도로방면,30,2016-09,031-580-2571,37.6816098,127.3767328,2021-06-28
경기도 가평군청,,경기도 가평군 청평면 대성리 623-14(남양주 경계(남양주)),차량방범,1,890,도로방면,30,2018-12,031-580-2571,37.67775854,127.3759481,2021-06-28
경기도 가평군청,,경기도 가평군 청평면 대성리 산 145-3(남양주 경계(수동)),차량방범,2,200,도로방면,30,2012-01,031-580-2571,37.69451075,127.3599924,2021-06-28
경기도 가평군청,,경기도 가평군 청평면 대성리 산 190-9(구운천),재난재해,1,200,360도전방면,30,,031-580-2141,37.68161003,127.3750093,2021-06-28
경기도 가평군청,,경기도 가평군 청평면 대성리 산 76-1(머내마을입구),생활방범,1,200,도로방면,30,2018-06,031-580-2571,37.71033259,127.3946451,2021-06-28
경기도 가평군청,,경기도 가평군 상면 율길리 산 37-1(자작교앞),쓰레기단속,1,200,360도전방면,30,2019-01,031-580-2550,37.8282999,127.3025599,2021-06-28
경기도 가평군청,,경기도 가평군 청평면 고성리 729(양진마을입구),생활방범,1,200,도로방면,30,2018-06,031-580-2571,37.71427591,127.4853388,2021-06-28
경기도 가평군청,경기도 가평군 청평면 소돌말길 8,경기도 가평군 청평면 대성리 30(대성리하수종말처리장),재난재해,1,200,360도전방면,30,,031-580-2141,37.72557891,127.4088958,2021-06-28
경기도 가평군청,,경기도 가평군 청평면 대성리 399-114(대성리역앞),생활방범,1,200,도로방면,30,2018-06,031-580-2571,37.68366347,127.3782595,2021-06-28
경기도 가평군청,,경기도 가평군 청평면 대성리 587-5(토마토할인마트앞),생활방범,4,200,도로방면,30,2018-11,031-580-2571,37.68055601,127.3760275,2021-06-28
경기도 가평군청,,경기도 가평군 청평면 대성리 595-3(신일슈퍼앞),차량방범,1,890,도로방면,30,2018-12,031-580-2571,37.68133999,127.377928,2021-06-28
경기도 가평군청,,경기도 가평군 청평면 대성리 산 4-1(팔각정삼거리),생활방범,2,200,도로방면,30,2016-12,031-580-2571,37.72804875,127.4073313,2021-06-28
경기도 가평군청,,경기도 가평군 설악면 가일리 413(선어치고개),쓰레기단속,2,200,360도전방면,30,2019-01,031-580-2550,37.5911799,127.472858,2021-06-28
경기도 가평군청,,경기도 가평군 설악면 사룡리 611(사룡리티파니펜션앞),쓰레기단속,1,200,360도전방면,30,2019-01,031-580-2550,37.6912499,127.4882299,2021-06-28
경기도 가평군청,,경기도 가평군 설악면 송산리 951-6(물미수상레져앞),쓰레기단속,1,200,360도전방면,30,2019-01,031-580-2550,37.7239399,127.5234799,2021-06-28
경기도 가평군청,경기도 가평군 설악면 한양부로 105,경기도 가평군 설악면 신천리 30(신천리 신포교?),쓰레기단속,1,200,360도전방면,30,2019-01,031-580-2550,37.67553532,127.5000187,2021-06-28
경기도 가평군청,,경기도 가평군 설악면 회곡리 산 13-30(별빛펜션 진입로),쓰레기단속,1,200,360도전방면,30,2019-01,031-580-2550,37.6863299,127.4676799,2021-06-28
경기도 가평군청,,경기도 가평군 조종면 현리 244-29(해피하우스앞),쓰레기단속,1,200,360도전방면,30,2019-01,031-580-2550,37.8220599,127.3525399,2021-06-28
경기도 가평군청,,경기도 가평군 조종면 현리 255-7(덕흥빌리지),쓰레기단속,1,200,360도전방면,30,2019-01,031-580-2550,37.8199699,127.352499,2021-06-28
경기도 가평군청,,경기도 가평군 청평면 청평리 427-3(상암순대국집앞),쓰레기단속,1,200,360도전방면,30,2019-01,031-580-2550,37.7355899,127.4167799,2021-06-28
경기도 가평군청,,경기도 가평군 가평읍 개곡리 964(개곡교),생활방범,2,200,도로방면,30,2016-12,031-580-2571,37.86442619,127.5301553,2021-06-28
경기도 가평군청,경기도 가평군 조종면 현창로 37,경기도 가평군 조종면 현리 409-8번지,교통단속,5,130,네방향,30,,031-580-2076,37.8182111,127.3481743,2021-06-28
경기도 가평군청,,경기도 가평군 청평면 상천리 1070-7(수리재마을 슈퍼앞),생활방범,1,200,도로방면,30,2016-07,031-580-2571,37.77965013,127.4360281,2021-06-28
경기도 가평군청,경기도 가평군 청평면 경춘로 1575-15,경기도 가평군 청평면 상천리 134-4(빗고개정상(청평)),재난재해,1,200,360도전방면,30,,031-580-2141,37.7903449,127.4629606,2021-06-28
경기도 가평군청,,경기도 가평군 청평면 상천리 1747,재난재해,4,200,360도전방면,45,,031-580-4767,37.7685509,127.4735608,2021-06-28
경기도 가평군청,,경기도 가평군 청평면 상천리 385-1(삼봉터입구),생활방범,2,200,도로방면,30,2018-06,031-580-2571,37.77468336,127.4584447,2021-06-28
경기도 가평군청,,경기도 가평군 가평읍 금대리 250-3(금대리버스정류장),생활방범,1,200,도로방면,30,2017-06,031-580-2571,37.76599162,127.5378178,2021-06-28
경기도 가평군청,,경기도 가평군 가평읍 금대리 266-1(비령대마을),생활방범,2,200,도로방면,30,2017-06,031-580-2571,37.76693635,127.5402233,2021-06-28
경기도 가평군청,,경기도 가평군 가평읍 금대리 산 165-3(남이섬캠핑장앞),생활방범,1,200,도로방면,30,2017-06,031-580-2571,37.77671266,127.5312946,2021-06-28
경기도 가평군청,,경기도 가평군 가평읍 금대리 산 205-6(클럽피쉬리조트),생활방범,1,200,도로방면,30,2017-06,031-580-2571,37.74791939,127.5261997,2021-06-28
경기도 가평군청,,경기도 가평군 가평읍 달전리 105(남이섬선착장),재난재해,1,200,360도전방면,30,,031-580-2141,37.80458598,127.5258847,2021-06-28
경기도 가평군청,,경기도 가평군 가평읍 달전리 22-3(자라섬남도),재난재해,2,200,360도전방면,30,,031-580-2141,37.81420505,127.5287987,2021-06-28
경기도 가평군청,,경기도 가평군 가평읍 달전리 271-4(달전교회),생활방범,4,200,도로방면,30,2016-06,031-580-2571,37.81153676,127.5221266,2021-06-28
경기도 가평군청,,경기도 가평군 가평읍 달전리 279-11(넥스빌아파트),생활방범,5,200,도로방면,30,2013-08,031-580-2571,37.81368987,127.519669,2021-06-28
경기도 가평군청,,경기도 가평군 가평읍 달전리 30(자라섬중도),재난재해,2,200,360도전방면,30,,031-580-2141,37.81636558,127.5282745,2021-06-28
경기도 가평군청,,경기도 가평군 가평읍 달전리 313-3(달전1리 마을회관),생활방범,3,200,도로방면,30,2016-06,031-580-2571,37.81147978,127.5195674,2021-06-28
경기도 가평군청,경기도 가평군 가평읍 달전로31번길 48,경기도 가평군 가평읍 달전리 364(하수종말처리장),재난재해,1,200,360도전방면,30,,031-580-2141,37.8162694,127.5204221,2021-06-28
경기도 가평군청,경기도 가평군 가평읍 호반로 2570,경기도 가평군 가평읍 달전리 435-1번지,쓰레기단속,1,200,360도전방면,30,2015-07,031-580-2550,37.8153072,127.5149278,2021-06-28
경기도 가평군청,,경기도 가평군 가평읍 달전리 455-2(달전2리 마을회관),생활방범,4,200,도로방면,30,2016-06,031-580-2571,37.81421079,127.5164138,2021-06-28
경기도 가평군청,,경기도 가평군 가평읍 달전리 612-3(가평신역사 고가도로),생활방범,2,200,도로방면,30,2016-07,031-580-2571,37.81623251,127.5117184,2021-06-28
경기도 가평군청,,경기도 가평군 가평읍 달전리 637(오목교),생활방범,3,200,도로방면,30,2013-08,031-580-2571,37.8170094,127.5147789,2021-06-28
경기도 가평군청,,경기도 가평군 가평읍 달전리 655(현충탑삼거리),생활방범,2,200,도로방면,30,2016-06,031-580-2571,37.81350347,127.5150115,2021-06-28
경기도 가평군청,경기도 가평군 가평읍 호반로 2570,경기도 가평군 가평읍 달전리 435-1번지,교통단속,1,130,세방향,30,,031-580-2076,37.8153072,127.5149278,2021-06-28
경기도 가평군청,,경기도 가평군 가평읍 대곡리 10-36(가평육교아래 운동시설),생활방범,2,200,도로방면,30,2017-06,031-580-2571,37.82330999,127.5187186,2021-06-28
경기도 가평군청,경기도 가평군 가평읍 가평제방길 97,경기도 가평군 가평읍 대곡리 11(가평펌프장),재난재해,1,200,360도전방면,30,,031-580-2141,37.82390213,127.5177872,2021-06-28
경기도 가평군청,,경기도 가평군 가평읍 대곡리 12-3(가평육교(춘천)),차량방범,1,890,도로방면,30,2018-06,031-580-2571,37.82281983,127.5176872,2021-06-28
경기도 가평군청,경기도 가평군 청평면 잠곡로 75,경기도 가평군 청평면 청평리 193-8(청평국민주택),생활방범,4,200,도로방면,30,2018-11,031-580-2571,37.73790312,127.4274532,2021-06-28
경기도 가평군청,,경기도 가평군 청평면 청평리 319-100(청평원미빌라삼거리),생활방범,5,200,도로방면,30,2013-08,031-580-2571,37.73995482,127.4228045,2021-06-28
경기도 가평군청,경기도 가평군 청평면 잠곡로 27,경기도 가평군 청평면 청평리 395번지,어린이보호,4,300,"초등학교정문방향, 360도전방면",30,2013-06,031-580-2571,37.7378574,127.4218821,2021-06-28
경기도 가평군청,,경기도 가평군 청평면 청평리 400-6(청평버스터미널뒤),생활방범,1,200,도로방면,30,2016-06,031-580-2571,37.73796028,127.4209011,2021-06-28
경기도 가평군청,,경기도 가평군 청평면 청평리 424-8(청평밤나무집앞),생활방범,3,200,도로방면,30,2016-07,031-580-2571,37.7362303,127.4180477,2021-06-28
경기도 가평군청,,경기도 가평군 청평면 청평리 439-3(청평아랫사거리),생활방범,3,200,도로방면,30,2017-06,031-580-2571,37.73587058,127.4152663,2021-06-28
경기도 가평군청,,경기도 가평군 청평면 청평리 445-33(청평5리 회전교차로),생활방범,3,200,도로방면,30,2016-07,031-580-2571,37.73772299,127.4165081,2021-06-28
경기도 가평군청,,경기도 가평군 청평면 청평리 455-13(청평농협앞 사거리),생활방범,1,200,도로방면,30,2016-06,031-580-2571,37.73680033,127.4176559,2021-06-28
경기도 가평군청,,경기도 가평군 청평면 청평리 483-20(세양청마루 뒤편),생활방범,2,200,도로방면,30,2017-06,031-580-2571,37.73946512,127.4157563,2021-06-28
경기도 가평군청,,경기도 가평군 청평면 청평리 497-14(덕흥빌라),생활방범,2,200,도로방면,30,2016-07,031-580-2571,37.74114627,127.4193869,2021-06-28
경기도 가평군청,,경기도 가평군 청평면 청평리 500-9(세우빌라 앞),쓰레기단속,1,200,360도전방면,30,2015-07,031-580-2550,37.7554111,127.4372315,2021-06-28
경기도 가평군청,,경기도 가평군 청평면 청평리 620-4(청평하천수위눈금),재난재해,1,200,360도전방면,30,,031-580-2141,37.73452221,127.4142869,2021-06-28
경기도 가평군청,,경기도 가평군 청평면 청평리 625-1(청평교앞),생활방범,1,200,도로방면,30,2016-09,031-580-2571,37.73318261,127.4143035,2021-06-28
경기도 가평군청,,경기도 가평군 청평면 청평리 627-9(공고다리뚝방),재난재해,1,200,360도전방면,30,,031-580-2141,37.7331932,127.414094,2021-06-28
경기도 가평군청,,경기도 가평군 청평면 청평리 655-14(청평팔각정),재난재해,1,200,360도전방면,30,,031-580-2141,37.72822848,127.4074388,2021-06-28
경기도 가평군청,,경기도 가평군 청평면 청평리 705-6(청평댐입구),차량방범,2,200,도로방면,30,2015-07,031-580-2571,37.72765456,127.410981,2021-06-28
경기도 가평군청,,경기도 가평군 청평면 청평리 738-5(청평시장마을회관),생활방범,3,200,도로방면,30,2013-08,031-580-2571,37.73436741,127.4155228,2021-06-28
경기도 가평군청,,경기도 가평군 청평면 청평리 745(청평중정문),생활방범,2,200,도로방면,30,2016-07,031-580-2571,37.74281107,127.4235506,2021-06-28
경기도 가평군청,경기도 가평군 청평면 시장중앙로 9,경기도 가평군 청평면 청평리 78-5번지,생활방범,3,200,도로방면,30,2016-06,031-580-2571,37.7351529,127.4161158,2021-06-28
경기도 가평군청,,경기도 가평군 청평면 청평리 79-25(임성하이츠빌라),생활방범,2,200,도로방면,30,2017-06,031-580-2571,37.73459691,127.4183786,2021-06-28
경기도 가평군청,,경기도 가평군 청평면 청평리 79-36(가원생고기앞),생활방범,1,200,도로방면,30,2016-06,031-580-2571,37.73381878,127.4172908,2021-06-28
경기도 가평군청,,경기도 가평군 청평면 청평리 81-5(별장빌리지 앞),쓰레기단속,1,200,360도전방면,30,2015-07,031-580-2550,37.7415485,127.4189184,2021-06-28
경기도 가평군청,,경기도 가평군 청평면 청평리 826(청평댐입구삼거리),생활방범,2,200,도로방면,30,2018-06,031-580-2571,37.72710411,127.4092073,2021-06-28
경기도 가평군청,,경기도 가평군 가평읍 상색리 509-15(빗고개정상(가평)),재난재해,1,200,360도전방면,30,,031-580-2141,37.79304874,127.4669842,2021-06-28
경기도 가평군청,,경기도 가평군 가평읍 승안리 1-6(가평승안천),재난재해,1,200,360도전방면,30,,031-580-2141,37.84002002,127.5100074,2021-06-28
경기도 가평군청,,경기도 가평군 가평읍 승안리 18-5(계량촌),생활방범,2,200,도로방면,30,2018-11,031-580-2571,37.84145116,127.5073389,2021-06-28
경기도 가평군청,,경기도 가평군 가평읍 승안리 50-10(농업기술센터입구),생활방범,1,200,도로방면,30,2016-12,031-580-2571,37.84263825,127.5053032,2021-06-28
경기도 가평군청,,경기도 가평군 가평읍 승안리 67-10(승안교앞),생활방범,1,200,도로방면,30,2016-07,031-580-2571,37.83858774,127.498667,2021-06-28
경기도 가평군청,,경기도 가평군 가평읍 승안리 산 216(물안골),재난재해,1,200,360도전방면,30,,031-580-2141,37.86922485,127.4643892,2021-06-28
경기도 가평군청,,경기도 가평군 가평읍 승안리 산 60(구 공무원휴양소 밑),쓰레기단속,1,200,360도전방면,30,2015-07,031-580-2550,37.7323508,127.4134786,2021-06-28
경기도 가평군청,,경기도 가평군 가평읍 읍내리 1010-39(제일분식 앞),생활방범,1,200,도로방면,30,2017-06,031-580-2571,37.83056664,127.5097676,2021-06-28
경기도 가평군청,,경기도 가평군 가평읍 읍내리 1019(일반_대현빌라트),생활방범,2,200,도로방면,30,2017-06,031-580-2571,37.83013502,127.5157622,2021-06-28
경기도 가평군청,,경기도 가평군 가평읍 읍내리 1019-1(가평레일바이크),생활방범,3,200,도로방면,30,2017-06,031-580-2571,37.82921046,127.5166935,2021-06-28
경기도 가평군청,,경기도 가평군 가평읍 읍내리 1038(가평구철다리앞),생활방범,3,300,도로방면,30,2016-06,031-580-2571,37.8284444,127.5142607,2021-06-28
경기도 가평군청,,경기도 가평군 가평읍 읍내리 1038(금강전기앞),생활방범,2,200,도로방면,30,2016-07,031-580-2571,37.82753517,127.5145756,2021-06-28
경기도 가평군청,,경기도 가평군 가평읍 읍내리 1049(동영모텔),생활방범,2,200,도로방면,30,2018-06,031-580-2571,37.82481851,127.5159406,2021-06-28
경기도 가평군청,,경기도 가평군 가평읍 읍내리 284-3(왕국회관앞),생활방범,1,200,도로방면,30,2018-11,031-580-2571,37.83347845,127.5157198,2021-06-28
경기도 가평군청,,경기도 가평군 가평읍 읍내리 292-16(에덴아파트2차),생활방범,2,200,도로방면,30,2016-12,031-580-2571,37.83259739,127.5201127,2021-06-28
경기도 가평군청,,경기도 가평군 가평읍 읍내리 299-8(읍내8리마을회관),생활방범,2,200,도로방면,30,2018-06,031-580-2571,37.83103734,127.5195163,2021-06-28
경기도 가평군청,경기도 가평군 북면 가화로 2462,경기도 가평군 북면 도대리 393-15(도대리보건진료소 앞),생활방범,1,200,도로방면,30,2019-11,031-580-2571,37.959899,127.4720899,2021-06-28
경기도 가평군청,경기도 가평군 북면 내촌길 54-14,경기도 가평군 북면 이곡리 282-4(내촌마을),생활방범,3,200,도로방면,30,2019-11,031-580-2571,37.8801199,127.5310699,2021-06-28
경기도 가평군청,,경기도 가평군 설악면 미사리 457-2(미사2리회관),생활방범,2,200,도로방면,30,2019-11,031-580-2571,37.7129199,127.5419999,2021-06-28
경기도 가평군청,경기도 가평군 설악면 봉미산안길7번길 1-6,경기도 가평군 설악면 설곡리 704-7(설곡보건진료소_차량),차량방범,1,200,도로방면,30,2019-12,031-580-2571,37.6211199,127.5183499,2021-06-28
경기도 가평군청,,경기도 가평군 청평면 고성리 산 79-1(가평대교),차량방범,2,200,도로방면,30,2019-12,031-580-2571,37.7098299,127.4971699,2021-06-28
경기도 가평군청,,경기도 가평군 청평면 상천리 산 89-2(수리재마을 입구),생활방범,1,200,도로방면,30,2019-11,031-580-2571,37.7696399,127.4468699,2021-06-28
경기도 가평군청,경기도 가평군 청평면 강변로 15-9,경기도 가평군 청평면 청평리 619-26(청평카서비스뒤),생활방범,1,200,도로방면,30,2019-11,031-580-2571,37.7345299,127.4139799,2021-06-28
경기도 가평군청,경기도 가평군 가평읍 광장로 10,경기도 가평군 가평읍 대곡리 270-9(가평중학교),쓰레기단속,2,200,360도전방면,30,2018-10,031-580-2550,37.8259699,127.5095599,2021-06-28
경기도 가평군청,,경기도 가평군 북면 도대리 332-2(바깥말정류장),쓰레기단속,1,200,360도전방면,30,2019-01,031-580-2550,37.9550699,127.4755299,2021-06-28
경기도 가평군청,,경기도 가평군 상면 덕현리 519-2(동굴유원지),쓰레기단속,1,200,360도전방면,30,2019-01,031-580-2550,37.7689499,127.3840999,2021-06-28
경기도 가평군청,경기도 가평군 청평면 경춘로 807-45,경기도 가평군 청평면 청평리 472(세양청마루105동 뒤),쓰레기단속,1,200,360도전방면,30,2019-01,031-580-2550,37.7410799,127.4160299,2021-06-28
경기도 가평군청,경기도 가평군 가평읍 강산길 25,경기도 가평군 가평읍 달전리 336-3번지,생활방범,3,200,도로방면,30,2016-06,031-580-2571,37.8141447,127.5177325,2021-06-28
경기도 가평군청,,경기도 가평군 가평읍 달전리 393-3(유성아파트),생활방범,2,200,도로방면,30,2016-06,031-580-2571,37.81489243,127.5176377,2021-06-28
경기도 가평군청,,경기도 가평군 가평읍 달전리 607-3(가평역 뒷길),생활방범,3,200,도로방면,30,2018-11,031-580-2571,37.81547511,127.5105008,2021-06-28
경기도 가평군청,,경기도 가평군 가평읍 달전리 산 98-10(남이섬주차장),생활방범,1,200,도로방면,30,2016-06,031-580-2571,37.80201808,127.5243478,2021-06-28
경기도 가평군청,경기도 가평군 가평읍 문화로 13-42,경기도 가평군 가평읍 달전리 603-2번지,교통단속,5,130,세방향,30,,031-580-2076,37.8142608,127.5107743,2021-06-28
경기도 가평군청,,경기도 가평군 가평읍 읍내리 305-4(자라목다리건너좌측),쓰레기단속,1,200,360도전방면,30,2015-07,031-580-2550,37.8230947,127.3487072,2021-06-28
경기도 가평군청,,경기도 가평군 가평읍 읍내리 317-5(뚝방길),생활방범,4,200,도로방면,30,2016-06,031-580-2571,37.82630094,127.5174955,2021-06-28
경기도 가평군청,,경기도 가평군 가평읍 읍내리 329-26(가평칼국수),생활방범,5,200,도로방면,30,2013-08,031-580-2571,37.82804441,127.5118506,2021-06-28
경기도 가평군청,,경기도 가평군 가평읍 읍내리 365-1(참전비 근린공원),생활방범,4,200,"공원내, 360도전방면",30,2016-06,031-580-2571,37.82586702,127.5159838,2021-06-28
경기도 가평군청,,경기도 가평군 가평읍 읍내리 403-2 (골목집 앞),쓰레기단속,1,200,360도전방면,30,2015-07,031-580-2550,37.8302326,127.5160462,2021-06-28
경기도 가평군청,,경기도 가평군 가평읍 읍내리 404-2(가평5일장화장실),생활방범,1,200,도로방면,30,2018-06,031-580-2571,37.82926389,127.515074,2021-06-28
경기도 가평군청,,경기도 가평군 가평읍 읍내리 406-4(읍내장터해장국),생활방범,4,200,도로방면,30,2016-09,031-580-2571,37.83005003,127.5147423,2021-06-28
경기도 가평군청,,경기도 가평군 가평읍 읍내리 419-5 (대현빌라트 앞),쓰레기단속,1,200,360도전방면,30,2015-07,031-580-2550,37.6773595,127.4885569,2021-06-28
경기도 가평군청,경기도 가평군 가평읍 정간내로 20,경기도 가평군 가평읍 읍내리 426-17번지,생활방범,2,200,도로방면,30,2017-06,031-580-2571,37.831615,127.5149653,2021-06-28
경기도 가평군청,,경기도 가평군 가평읍 읍내리 462-6(은파세차장),생활방범,2,200,도로방면,30,2018-06,031-580-2571,37.8297332,127.5128055,2021-06-28
경기도 가평군청,,경기도 가평군 가평읍 읍내리 468-26(가평타임즈),생활방범,3,200,도로방면,30,2018-06,031-580-2571,37.8293426,127.5114625,2021-06-28
경기도 가평군청,경기도 가평군 가평읍 가화로 87,경기도 가평군 가평읍 읍내리 349-13번지,교통단속,3,41,세방향,30,,031-580-2076,37.8275448,127.5144614,2021-06-28
경기도 가평군청,,경기도 가평군 설악면 신천리 산 59-2(황금어장 앞),생활방범,2,200,도로방면,30,2019-11,031-580-2571,37.6680599,127.4838299,2021-06-28
경기도 가평군청,,경기도 가평군 설악면 신천리 산 59-6(명장1교),생활방범,1,200,도로방면,30,2019-11,031-580-2571,37.666499,127.482299,2021-06-28
경기도 가평군청,,경기도 가평군 설악면 위곡리 651-4(쏘홈경기점 앞),생활방범,2,200,도로방면,30,2019-11,031-580-2571,37.6720799,127.5277699,2021-06-28
경기도 가평군청,,경기도 가평군 조종면 마일리 449(마일1리 버스정류장),생활방범,2,200,도로방면,30,2019-11,031-580-2571,37.8473599,127.3748399,2021-06-28
경기도 가평군청,,경기도 가평군 조종면 신상리 288(돌산유원지 앞),생활방범,2,200,도로방면,30,2019-11,031-580-2571,37.8469199,127.3479599,2021-06-28
경기도 가평군청,,경기도 가평군 조종면 현리 298-1(조은카센터),생활방범,3,200,도로방면,30,2019-11,031-580-2571,37.8202999,127.3466999,2021-06-28
경기도 가평군청,,경기도 가평군 청평면 고성리 산 122-1(고성교차로(청평방향)),차량방범,2,200,도로방면,30,2019-12,031-580-2571,37.7109999,127.4971399,2021-06-28
경기도 가평군청,,경기도 가평군 청평면 대성리 530-1(오류동마을 입구),생활방범,2,200,도로방면,30,2019-11,031-580-2571,37.6939499,127.3640699,2021-06-28
경기도 가평군청,,경기도 가평군 청평면 삼회리 479-12(청평 스카이타워 앞),생활방범,1,200,도로방면,30,2019-11,031-580-2571,37.6645999,127.3807899,2021-06-28
경기도 가평군청,경기도 가평군 청평면 창말길 4-16,경기도 가평군 청평면 청평리 729-35(창말부락),생활방범,2,200,도로방면,30,2019-11,031-580-2571,37.7275899,127.4124299,2021-06-28
경기도 가평군청,,경기도 가평군 청평면 청평리 50-1(호반수상레져 앞),생활방범,2,200,도로방면,30,2019-11,031-580-2571,37.7262799,127.4282199,2021-06-28
경기도 가평군청,,경기도 가평군 청평면 하천리 산 80-1(하천터널(포천방향)),차량방범,1,200,도로방면,30,2019-12,031-580-2571,37.7504799,127.4296399,2021-06-28
경기도 가평군청,,경기도 가평군 청평면 하천리 산 461-1(하천터널(청평방향)),차량방범,2,200,도로방면,30,2019-12,031-580-2571,37.7499599,127.430399,2021-06-28
경기도 가평군청,,경기도 가평군 청평면 하천리 166-2(우무내길),생활방범,1,200,도로방면,30,2019-11,031-580-2571,37.7449999,127.435999,2021-06-28
경기도 가평군청,,경기도 가평군 가평읍 산유리 산 242-3(갈치고개),쓰레기단속,1,200,360도전방면,30,2019-01,031-580-2550,37.7722799,127.509999,2021-06-28
경기도 가평군청,경기도 가평군 가평읍 보납로 43,경기도 가평군 가평읍 읍내리 427-1(준일주택 옆),쓰레기단속,1,200,360도전방면,30,2019-01,031-580-2550,37.8316199,127.5153799,2021-06-28
경기도 가평군청,,경기도 가평군 북면 백둔리 949(양지마을 버스정류장),쓰레기단속,1,200,360도전방면,30,2019-01,031-580-2550,37.9039699,127.4562599,2021-06-28
경기도 가평군청,,경기도 가평군 북면 적목리 산 209(조무락골입구),쓰레기단속,1,200,360도전방면,30,2019-01,031-580-2550,37.9905299,127.4412499,2021-06-28
경기도 가평군청,,경기도 가평군 상면 덕현리 534-21(별천지펜션입구),쓰레기단속,1,200,360도전방면,30,2019-01,031-580-2550,37.7690699,127.3925199,2021-06-28
경기도 가평군청,,경기도 가평군 상면 연하리 300(연하리 기와집골),쓰레기단속,1,200,360도전방면,30,2019-01,031-580-2550,37.789999,127.3498699,2021-06-28
경기도 가평군청,,경기도 가평군 가평읍 읍내리 940-1(엽광교사거리),생활방범,4,130,도로방면,30,2013-08,031-580-2571,37.84699203,127.5079814,2021-06-28
경기도 가평군청,경기도 가평군 가평읍 보납로 25,경기도 가평군 가평읍 읍내리 447-1번지,교통단속,4,41,세방향,30,,031-580-2076,37.8310563,127.5132184,2021-06-28
경기도 가평군청,,경기도 가평군 가평읍 하색리 151-9(부대앞),생활방범,1,200,도로방면,30,2016-07,031-580-2571,37.80334757,127.4937194,2021-06-28
경기도 가평군청,,경기도 가평군 가평읍 하색리 447-8(하색2리 마을회관앞),생활방범,2,200,도로방면,30,2017-06,031-580-2571,37.80448778,127.4881043,2021-06-28
경기도 가평군청,,경기도 가평군 북면 목동리 1077(목동배터),재난재해,1,200,360도전방면,30,,031-580-2141,37.88500612,127.5447534,2021-06-28
경기도 가평군청,,경기도 가평군 가평읍 읍내리 614-3(준수아파트사거리),생활방범,5,200,도로방면,30,2013-08,031-580-2571,37.83341291,127.5088805,2021-06-28
경기도 가평군청,경기도 가평군 가평읍 가화로 155,경기도 가평군 가평읍 읍내리 624-3번지,쓰레기단속,1,42,360도전방면,30,2015-07,031-580-2550,37.8330837,127.5114862,2021-06-28
경기도 가평군청,,경기도 가평군 가평읍 읍내리 625-4(가평어린이집앞),어린이보호,3,200,"어린이집방향, 360도전방면",30,2013-07,031-580-2571,37.83389166,127.5112731,2021-06-28
경기도 가평군청,,경기도 가평군 가평읍 읍내리 636-1(준수사우나앞),생활방범,4,200,도로방면,30,2016-07,031-580-2571,37.83380234,127.5094094,2021-06-28
경기도 가평군청,경기도 가평군 가평읍 문화로 238-1,경기도 가평군 가평읍 읍내리 649번지,쓰레기단속,1,200,360도전방면,30,2015-07,031-580-2550,37.8230135,127.5099939,2021-06-28
경기도 가평군청,,경기도 가평군 가평읍 읍내리 758-3(계량교),생활방범,3,200,도로방면,30,2016-07,031-580-2571,37.83940504,127.5067655,2021-06-28
경기도 가평군청,,경기도 가평군 가평읍 읍내리 766-1(신미식품앞 삼거리),생활방범,1,200,도로방면,30,2017-06,031-580-2571,37.83774009,127.5082102,2021-06-28
경기도 가평군청,경기도 가평군 가평읍 석봉로239번길 19,경기도 가평군 가평읍 읍내리 827번지,생활방범,2,200,도로방면,30,2018-06,031-580-2571,37.8356602,127.5059864,2021-06-28
경기도 가평군청,,경기도 가평군 가평읍 읍내리 산 90-1(보납산입구),생활방범,2,200,도로방면,30,2018-06,031-580-2571,37.83409783,127.5201283,2021-06-28
경기도 가평군청,,경기도 가평군 가평읍 읍내리 산 93-2(자라목),차량방범,2,150,도로방면,30,2019-12,031-580-2571,37.83091227,127.5227838,2021-06-28
경기도 가평군청,경기도 가평군 가평읍 가화로 112,경기도 가평군 가평읍 읍내리 474-1번지,교통단속,2,41,양방향,30,,031-580-2076,37.82974293,127.5139476,2021-06-28
경기도 가평군청,,경기도 가평군 가평읍 이화리 245-2(이화삼거리),생활방범,3,300,도로방면,30,2015-11,031-580-2571,37.79919628,127.5127442,2021-06-28
경기도 가평군청,,경기도 가평군 가평읍 하색리 2-3(가평역입구교차로),생활방범,1,200,도로방면,30,2016-12,031-580-2571,37.81668576,127.5065458,2021-06-28
경기도 가평군청,경기도 가평군 가평읍 진동안길 4,경기도 가평군 가평읍 하색리 268-8번지,생활방범,2,130,도로방면,30,2013-08,031-580-2571,37.8115533,127.4974679,2021-06-28
경기도 가평군청,,경기도 가평군 북면 도대리 산 112-2(명지산),재난재해,1,200,360도전방면,30,,031-580-2141,37.93341697,127.4878013,2021-06-28
경기도 가평군청,,경기도 가평군 북면 도대리 산 41-6(명화교),생활방범,2,200,도로방면,30,2016-12,031-580-2571,37.96951688,127.4587837,2021-06-28
경기도 가평군청,경기도 가평군 북면 화악산로 10-1,경기도 가평군 북면 목동리 888-1번지,생활방범,3,200,도로방면,30,2013-08,031-580-2571,37.88622902,127.549707,2021-06-28
경기도 가평군청,,경기도 가평군 북면 목동리 693-5(성황당교),생활방범,1,200,도로방면,30,2016-07,031-580-2571,37.89679074,127.5606334,2021-06-28
경기도 가평군청,,경기도 가평군 북면 목동리 840-2(목동삼거리),생활방범,2,130,도로방면,30,2013-08,031-580-2571,37.88532276,127.5489556,2021-06-28
경기도 가평군청,경기도 가평군 북면 가화로 1030-39,경기도 가평군 북면 목동리 913-4(북면근린공원),생활방범,4,200,"공원내, 360도전방면",30,2012-07,031-580-2571,37.88804155,127.5485915,2021-06-28
경기도 가평군청,,경기도 가평군 북면 목동리 818-3(북면농협앞),차량방범,2,150,도로방면,30,2010-06,031-580-2571,37.88370048,127.5485528,2021-06-28
경기도 가평군청,,경기도 가평군 북면 이곡리 664(승차대기소 옆),쓰레기단속,1,200,360도전방면,30,2015-07,031-580-2550,37.831259,127.5182683,2021-06-28
경기도 가평군청,경기도 가평군 북면 가화로 2652,경기도 가평군 북면 적목리 678(재난명화교),재난재해,1,200,360도전방면,30,,031-580-2141,37.9687474,127.4575994,2021-06-28
경기도 가평군청,,경기도 가평군 북면 제령리 4-14(화랑포유원지 입구),쓰레기단속,3,200,360도전방면,30,2015-07,031-580-2550,37.8651573,127.4648877,2021-06-28
경기도 가평군청,,경기도 가평군 상면 덕현리 494-1(덕현교차로),생활방범,1,200,도로방면,30,2016-12,031-580-2571,37.76413633,127.3923518,2021-06-28
경기도 가평군청,경기도 가평군 상면 녹수계곡로 213-20,경기도 가평군 상면 덕현리 산 143-187(녹수동산),재난재해,1,200,360도전방면,30,,031-580-2141,37.78146977,127.3947579,2021-06-28
경기도 가평군청,,경기도 가평군 상면 봉수리 산 135(봉수리물곡교),생활방범,2,200,도로방면,30,2016-07,031-580-2571,37.82881423,127.3189464,2021-06-28
경기도 가평군청,,경기도 가평군 상면 상동리 산 6-10(상동리마을회관),생활방범,1,200,도로방면,30,2016-07,031-580-2571,37.79342706,127.323137,2021-06-28
경기도 가평군청,경기도 가평군 상면 비룡로 2251,경기도 가평군 상면 연하리 546-25번지,생활방범,3,200,"공원내, 360도전방면",30,2013-07,031-580-2571,37.80359726,127.3486054,2021-06-28
경기도 가평군청,,경기도 가평군 상면 태봉리 248-1(원흥부락),생활방범,1,200,도로방면,30,2016-12,031-580-2571,37.81823929,127.3245601,2021-06-28
경기도 가평군청,,경기도 가평군 상면 임초리 417-12(임초리삼거리),생활방범,2,200,도로방면,30,2016-12,031-580-2571,37.77378144,127.3718834,2021-06-28
경기도 가평군청,,경기도 가평군 상면 항사리 303-2(항사리 슈퍼앞),생활방범,2,200,도로방면,30,2017-06,031-580-2571,37.79238633,127.3669016,2021-06-28
경기도 가평군청,경기도 가평군 설악면 신천중앙로 109,경기도 가평군 설악면 신천리 433-8번지,교통단속,3,130,양방향,30,,031-580-2076,37.6773129,127.4913052,2021-06-28
경기도 가평군청,,경기도 가평군 설악면 가일리 253-1(유명산민박 앞),생활방범,1,200,도로방면,30,2017-06,031-580-2571,37.59492149,127.4905332,2021-06-28
경기도 가평군청,,경기도 가평군 설악면 가일리 산 65-23(선어치고개(정상)),재난재해,1,200,360도전방면,30,,031-580-2141,37.59088825,127.4711815,2021-06-28
경기도 가평군청,경기도 가평군 설악면 양방가루재길 76,경기도 가평군 설악면 방일리 643(방일초등학교앞),어린이보호,3,300,"초등학교정문방향, 360도전방면",30,2013-06,031-580-2571,37.62926551,127.4983503,2021-06-28
경기도 가평군청,,경기도 가평군 설악면 신천리 497-1(미원초등학교앞),어린이보호,4,300,"초등학교정문방향, 360도전방면",30,2013-06,031-580-2571,37.67895144,127.4911757,2021-06-28
경기도 가평군청,,경기도 가평군 가평읍 읍내리 775-3(정명힐탑앞),생활방범,3,200,도로방면,30,2016-07,031-580-2571,37.8367399,127.5076189,2021-06-28
경기도 가평군청,경기도 가평군 북면 백둔로 498,경기도 가평군 북면 백둔리 458-1번지,생활방범,1,200,도로방면,30,2016-12,031-580-2571,37.90417896,127.4547512,2021-06-28
경기도 가평군청,,경기도 가평군 청평면 청평리 465-80(청평빌라앞),생활방범,2,200,도로방면,30,2016-12,031-580-2571,37.73854682,127.4201388,2021-06-28
경기도 가평군청,경기도 가평군 청평면 경춘로 785-53,경기도 가평군 청평면 청평리 617-24(기아자동차청평대리점),생활방범,2,200,도로방면,30,2018-11,031-580-2571,37.7364979,127.4150333,2021-06-28
경기도 가평군청,,경기도 가평군 청평면 청평리 631-23(청평로얄아파트),생활방범,2,200,도로방면,30,2016-12,031-580-2571,37.73224606,127.4124976,2021-06-28
경기도 가평군청,,경기도 가평군 청평면 청평리 738-11(청일덱스빌아파트),생활방범,4,200,도로방면,30,2013-08,031-580-2571,37.73315299,127.414897,2021-06-28
경기도 가평군청,,경기도 가평군 청평면 청평리 784-2(청평초등학교후문),어린이보호,4,200,"초등학교정문방향, 360도전방면",30,2016-06,031-580-2571,37.73850284,127.4216343,2021-06-28
경기도 가평군청,,경기도 가평군 청평면 청평리 796-1(청평은성장여관),생활방범,5,200,도로방면,30,2013-08,031-580-2571,37.73698744,127.4196356,2021-06-28
경기도 가평군청,,경기도 가평군 청평면 하천리 275-1(구우성제재소 앞),쓰레기단속,1,200,360도전방면,30,2015-07,031-580-2550,37.8002091,127.3729783,2021-06-28
경기도 가평군청,,경기도 가평군 청평면 하천리 600-53(유답촌입구),생활방범,2,200,도로방면,30,2018-11,031-580-2571,37.75828303,127.4368383,2021-06-28
경기도 가평군청,,경기도 가평군 가평읍 복장리 93-2(복장교),생활방범,1,200,도로방면,30,2019-05,031-580-2571,37.739714,127.508619,2021-06-28
경기도 가평군청,경기도 가평군 설악면 신천중앙로 102,경기도 가평군 설악면 신천리 413-7(설악면5일장),생활방범,6,200,도로방면,30,2019-02,031-580-2571,37.6774399,127.492599,2021-06-28
경기도 가평군청,,경기도 가평군 청평면 상천리 1417-5(상천농촌테마파크 입구),생활방범,3,200,도로방면,30,2019-05,031-580-2571,37.7670959,127.4569819,2021-06-28
경기도 가평군청,,경기도 가평군 상면 율길리 304-2(율길1리2리경계),생활방범,2,200,도로방면,30,2019-05,031-580-2571,37.8296999,127.2917799,2021-06-28
경기도 가평군청,,경기도 가평군 조종면 운악리 산 120-12(꽃동네 입구),생활방범,2,200,도로방면,30,2019-05,031-580-2571,37.8837419,127.3555739,2021-06-28
경기도 가평군청,,경기도 가평군 상면 율길리 468-1(포천경계 구도로),생활방범,2,200,도로방면,30,2019-06,031-580-2571,37.8455999,127.2828169,2021-06-28
경기도 가평군청,경기도 가평군 가평읍 태봉두밀로406번길 11,경기도 가평군 가평읍 두밀리 726(두밀삼거리),생활방범,2,200,도로방면,30,2019-11,031-580-2571,37.8161299,127.4578499,2021-06-28
경기도 가평군청,,경기도 가평군 가평읍 산유리 206-2(산유낚시터 입구),생활방범,1,200,도로방면,30,2017-06,031-580-2571,37.75621118,127.5119445,2021-06-28
경기도 가평군청,경기도 가평군 가평읍 태봉두밀로 6,경기도 가평군 가평읍 상색리 98-1번지,생활방범,2,130,도로방면,30,2013-08,031-580-2571,37.802817,127.4853832,2021-06-28
경기도 가평군청,경기도 가평군 가평읍 태봉두밀로 34-31,경기도 가평군 가평읍 상색리 171-2번지,어린이보호,3,300,"초등학교정문방향, 360도전방면",30,2013-06,031-580-2571,37.8053021,127.4851899,2021-06-28
경기도 가평군청,경기도 가평군 가평읍 불기산길 4,경기도 가평군 가평읍 상색리 295-12번지,생활방범,1,200,도로방면,30,2016-12,031-580-2571,37.796939,127.4799123,2021-06-28
경기도 가평군청,,경기도 가평군 가평읍 상색리 374-1(새한레미콘입구),생활방범,1,200,도로방면,30,2016-12,031-580-2571,37.79262533,127.4719409,2021-06-28
경기도 가평군청,경기도 가평군 조종면 운악청계로 551,경기도 가평군 조종면 운악리 656(조종천2(운악리)),재난재해,1,200,360도전방면,30,,031-580-2141,37.8640636,127.3489147,2021-06-28
경기도 가평군청,경기도 가평군 조종면 조종새싹로 51,경기도 가평군 조종면 현리 232-7번지,쓰레기단속,1,200,360도전방면,30,2015-07,031-580-2550,37.8231311,127.348749,2021-06-28
경기도 가평군청,,경기도 가평군 조종면 현리 264-72(현리시가지테마공원),생활방범,5,300,"공원내, 360도전방면",30,2016-06,031-580-2571,37.81905305,127.3489395,2021-06-28
경기도 가평군청,경기도 가평군 조종면 조종새싹로 13-9,경기도 가평군 조종면 현리 276번지,어린이보호,5,300,"초등학교정문방향, 360도전방면",30,2013-06,031-580-2571,37.8214909,127.3486759,2021-06-28
경기도 가평군청,,경기도 가평군 북면 제령리 산 185-4(백둔교),생활방범,1,200,도로방면,30,2016-07,031-580-2571,37.89901368,127.504085,2021-06-28
경기도 가평군청,,경기도 가평군 북면 화악리 1094-3(화악5교),재난재해,1,200,360도전방면,30,,031-580-2141,37.97916118,127.5270597,2021-06-28
경기도 가평군청,,경기도 가평군 북면 화악리 1397(화악2교),재난재해,1,200,360도전방면,30,,031-580-2141,37.93423054,127.5556474,2021-06-28
경기도 가평군청,,경기도 가평군 북면 화악리 209-3(아랫홍적),재난재해,1,200,360도전방면,30,,031-580-2141,37.95333983,127.5791948,2021-06-28
경기도 가평군청,,경기도 가평군 북면 화악리 503-19(신당교),생활방범,1,200,도로방면,30,2016-12,031-580-2571,37.92875706,127.568111,2021-06-28
경기도 가평군청,,경기도 가평군 북면 화악리 산 228-1(화악산터널),재난재해,2,200,360도전방면,30,,031-580-2141,37.99744589,127.5260935,2021-06-28
경기도 가평군청,,경기도 가평군 상면 덕현리 21-3(산장국민관광지(조종천)),재난재해,1,200,360도전방면,30,,031-580-2141,37.75503652,127.413482,2021-06-28
경기도 가평군청,,경기도 가평군 상면 덕현리 406-3(광성교회앞),생활방범,1,200,도로방면,30,2016-12,031-580-2571,37.75769064,127.3970151,2021-06-28
경기도 가평군청,,경기도 가평군 상면 덕현리 675(녹수계곡(조가터교)),생활방범,1,200,도로방면,30,2016-07,031-580-2571,37.76680252,127.3934367,2021-06-28
경기도 가평군청,,경기도 가평군 상면 덕현리 691(덕현리느티나무유원지),재난재해,1,200,360도전방면,30,,031-580-2141,37.75795027,127.3970009,2021-06-28
경기도 가평군청,,경기도 가평군 상면 봉수리 175-2(봉수리영천슈퍼),생활방범,1,200,도로방면,30,2016-07,031-580-2571,37.86063497,127.2901537,2021-06-28
경기도 가평군청,,경기도 가평군 상면 봉수리 177-16(봉수리교회앞),생활방범,1,200,도로방면,30,2018-11,031-580-2571,37.86002586,127.2890839,2021-06-28
경기도 가평군청,,경기도 가평군 상면 봉수리 307(봉수리 마을입구),생활방범,2,300,도로방면,30,2016-06,031-580-2571,37.85201934,127.284473,2021-06-28
경기도 가평군청,,경기도 가평군 상면 봉수리 산74-2 (봉수리 포도직판장),쓰레기단속,1,200,360도전방면,30,2015-07,031-580-2550,37.8052904,127.3553691,2021-06-28
경기도 가평군청,,경기도 가평군 상면 상동리 271-3(버스정류장 종점),차량방범,2,150,도로방면,30,2011-01,031-580-2571,37.77967124,127.2832583,2021-06-28
경기도 가평군청,,경기도 가평군 상면 상동리 산 76-2(서릿고개(정상)),재난재해,1,200,360도전방면,30,,031-580-2141,37.77734633,127.2814407,2021-06-28
경기도 가평군청,,경기도 가평군 상면 연하리 250-7(반계교),생활방범,2,200,도로방면,30,2018-06,031-580-2571,37.79953639,127.3513451,2021-06-28
경기도 가평군청,,경기도 가평군 상면 연하리 547-16(상면농협앞),생활방범,3,200,도로방면,30,2016-07,031-580-2571,37.80530536,127.3562552,2021-06-28
경기도 가평군청,,경기도 가평군 상면 연하리 547-2(명당터부동산 앞),쓰레기단속,1,200,360도전방면,30,2015-07,031-580-2550,37.8330636,127.5114084,2021-06-28
경기도 가평군청,경기도 가평군 상면 태봉골길 165-8,경기도 가평군 상면 태봉리 10-1(연하초등학교앞),어린이보호,4,300,"초등학교정문방향, 360도전방면",30,2013-06,031-580-2571,37.80311515,127.3414909,2021-06-28
경기도 가평군청,경기도 가평군 상면 청군로 2020,경기도 가평군 상면 율길리 351-1번지,생활방범,2,200,도로방면,30,2016-07,031-580-2571,37.83185412,127.2921987,2021-06-28
경기도 가평군청,,경기도 가평군 상면 율길리 452-42(37번국도포천경계),생활방범,1,200,도로방면,30,2016-12,031-580-2571,37.83908639,127.2873934,2021-06-28
경기도 가평군청,,경기도 가평군 상면 율길리 452-42(포천 경계),차량방범,1,300,도로방면,30,2018-12,031-580-2571,37.83908639,127.2873934,2021-06-28
경기도 가평군청,경기도 가평군 상면 청군로 2090,경기도 가평군 상면 율길리 454-1번지,차량방범,2,150,도로방면,30,2009-10,031-580-2571,37.83790217,127.2885708,2021-06-28
경기도 가평군청,경기도 가평군 상면 청군로 2090,경기도 가평군 상면 율길리 843(율길초등학교앞),어린이보호,4,300,"초등학교정문방향, 360도전방면",30,2015-07,031-580-2571,37.83685265,127.2881026,2021-06-28
경기도 가평군청,,경기도 가평군 상면 율길리 943(자작교),생활방범,1,200,도로방면,30,2018-11,031-580-2571,37.82813657,127.3025612,2021-06-28
경기도 가평군청,,경기도 가평군 상면 임초리 338(임초2리마을회관),생활방범,3,130,도로방면,30,2013-08,031-580-2571,37.76500577,127.3719935,2021-06-28
경기도 가평군청,,경기도 가평군 상면 임초리 338-1(마을회관 앞),쓰레기단속,1,200,360도전방면,30,2015-07,031-580-2550,37.8906411,127.5459087,2021-06-28
경기도 가평군청,,경기도 가평군 상면 임초리 446-1(상면초등학교앞),어린이보호,3,300,"초등학교정문방향, 360도전방면",30,2013-06,031-580-2571,37.77613164,127.3706603,2021-06-28
경기도 가평군청,,경기도 가평군 상면 태봉리 516-1(원흥리 마을입구),쓰레기단속,1,200,360도전방면,30,2015-07,031-580-2550,37.8768159,127.5291559,2021-06-28
경기도 가평군청,,경기도 가평군 상면 항사리 307(상면 벌말입구),생활방범,2,130,도로방면,30,2013-08,031-580-2571,37.79191258,127.3680532,2021-06-28
경기도 가평군청,,경기도 가평군 상면 항사리 산 208(망배치),재난재해,1,200,360도전방면,30,,031-580-2141,37.78807347,127.4024332,2021-06-28
경기도 가평군청,,경기도 가평군 상면 행현리 934-6(임초리행현교앞),생활방범,3,130,도로방면,30,2013-08,031-580-2571,37.76898235,127.3678756,2021-06-28
경기도 가평군청,,경기도 가평군 설악면 가일리 14(어비산OK맨션 앞),생활방범,1,200,도로방면,30,2018-11,031-580-2571,37.59119693,127.5111431,2021-06-28
경기도 가평군청,경기도 가평군 설악면 어비산길 52,경기도 가평군 설악면 가일리 206(가인만당앞),생활방범,1,200,도로방면,30,2018-12,031-580-2571,37.5976735,127.4972293,2021-06-28
경기도 가평군청,,경기도 가평군 설악면 가일리 290-61(유명산삼거리),생활방범,3,200,도로방면,30,2016-12,031-580-2571,37.60119887,127.492921,2021-06-28
경기도 가평군청,,경기도 가평군 설악면 가일리 308-30(유명산 삼거리),차량방범,2,150,도로방면,30,2009-05,031-580-2571,37.60243345,127.4934023,2021-06-28
경기도 가평군청,,경기도 가평군 설악면 묵안리 산 51-11(묵안교),생활방범,2,200,도로방면,30,2017-06,031-580-2571,37.6109398,127.5224495,2021-06-28
경기도 가평군청,경기도 가평군 설악면 미사리로 588,경기도 가평군 설악면 미사리 290-3번지,어린이보호,2,200,"초등학교정문방향, 360도전방면",30,2016-06,031-580-2571,37.7036804,127.5402915,2021-06-28
경기도 가평군청,,경기도 가평군 설악면 선촌리 32-3(설악체육공원정상),생활방범,1,200,도로방면,30,2018-11,031-580-2571,37.68331045,127.4910538,2021-06-28
경기도 가평군청,,경기도 가평군 가평읍 읍내리 493-2(CU가평군청점),생활방범,2,200,도로방면,30,2017-06,031-580-2571,37.83087102,127.5105743,2021-06-28
경기도 가평군청,경기도 가평군 가평읍 보납로 3,경기도 가평군 가평읍 읍내리 505-2번지,생활방범,1,200,도로방면,30,2016-09,031-580-2571,37.83134648,127.5109165,2021-06-28
경기도 가평군청,,경기도 가평군 가평읍 읍내리 534-6(잣고을곰탕 앞),생활방범,4,200,도로방면,30,2017-06,031-580-2571,37.82947121,127.510106,2021-06-28
경기도 가평군청,,경기도 가평군 가평읍 읍내리 553-5(가평초골목길),생활방범,2,200,도로방면,30,2018-11,031-580-2571,37.83066212,127.5083511,2021-06-28
경기도 가평군청,경기도 가평군 가평읍 향교로 17,경기도 가평군 가평읍 읍내리 542-1번지,어린이보호,4,300,"초등학교정문방향, 360도전방면",30,2013-07,031-580-2571,37.8294497,127.5079954,2021-06-28
경기도 가평군청,,경기도 가평군 가평읍 읍내리 579-11(한석봉도서관앞),생활방범,3,200,도로방면,30,2018-11,031-580-2571,37.8297821,127.5071094,2021-06-28
경기도 가평군청,,경기도 가평군 가평읍 읍내리 581(서울주택사거리),생활방범,4,200,도로방면,30,2015-11,031-580-2571,37.8317583,127.5063103,2021-06-28
경기도 가평군청,,경기도 가평군 가평읍 읍내리 583-5(가평성당앞),생활방범,1,200,도로방면,30,2018-06,031-580-2571,37.83189587,127.5085266,2021-06-28
경기도 가평군청,,경기도 가평군 가평읍 대곡리 12-3(가평육교(가평)),차량방범,1,890,도로방면,30,2018-06,031-580-2571,37.82281983,127.5176872,2021-06-28
경기도 가평군청,,경기도 가평군 가평읍 승안리 286-13(승안2리마을회관),생활방범,2,200,도로방면,30,2015-11,031-580-2571,37.84761259,127.4874802,2021-06-28
경기도 가평군청,,경기도 가평군 가평읍 승안리 산 138-1(용추폭포),재난재해,1,200,360도전방면,30,,031-580-2141,37.85412511,127.4815851,2021-06-28
경기도 가평군청,경기도 가평군 가평읍 정간내로 7,경기도 가평군 가평읍 읍내리 1018번지,생활방범,2,200,도로방면,30,2017-06,031-580-2571,37.83161202,127.5136062,2021-06-28
경기도 가평군청,,경기도 가평군 가평읍 읍내리 1031-1(자라목교),생활방범,3,200,도로방면,30,2016-07,031-580-2571,37.83162088,127.5182371,2021-06-28
경기도 가평군청,경기도 가평군 가평읍 정간내로19번길 19-20,경기도 가평군 가평읍 읍내리 259번지 이화주택,생활방범,4,200,도로방면,30,2013-08,031-580-2571,37.8334326,127.5130684,2021-06-28
경기도 가평군청,,경기도 가평군 가평읍 읍내리 448-5(가평읍내사거리),생활방범,5,200,도로방면,30,2016-07,031-580-2571,37.83101716,127.5130139,2021-06-28
경기도 가평군청,,경기도 가평군 가평읍 읍내리 468-52(천계닭갈비사거리),생활방범,4,200,도로방면,30,2016-07,031-580-2571,37.82919298,127.5124177,2021-06-28
경기도 가평군청,,경기도 가평군 가평읍 읍내리 503-29(읍내3리마을쉼터앞),생활방범,3,200,도로방면,30,2016-07,031-580-2571,37.83209224,127.5107212,2021-06-28
경기도 가평군청,,경기도 가평군 가평읍 읍내리 553(가평초향교입구),생활방범,2,200,도로방면,30,2013-08,031-580-2571,37.83137914,127.5072752,2021-06-28
경기도 가평군청,경기도 가평군 가평읍 향교로27번길 13,경기도 가평군 가평읍 읍내리 575-6(가평초등학교후문),어린이보호,3,300,"초등학교정문방향, 360도전방면",30,2015-07,031-580-2571,37.83131288,127.5084135,2021-06-28
경기도 가평군청,,경기도 가평군 가평읍 읍내리 384-5(광림빌라앞),생활방범,3,200,도로방면,30,2018-06,031-580-2571,37.82804158,127.5164627,2021-06-28
경기도 가평군청,,경기도 가평군 설악면 선촌리 33-6(통일교신천사거리),생활방범,4,200,도로방면,30,2016-07,031-580-2571,37.68602458,127.4930043,2021-06-28
경기도 가평군청,,경기도 가평군 설악면 선촌리 65-8(설악체육공원3),생활방범,4,300,"공원내, 360도전방면",30,2015-10,031-580-2571,37.68508108,127.4902133,2021-06-28
경기도 가평군청,,경기도 가평군 설악면 선촌리 산 34-5(설악체육공원4),생활방범,2,300,"공원내, 360도전방면",30,2015-10,031-580-2571,37.68499311,127.4895309,2021-06-28
경기도 가평군청,,경기도 가평군 설악면 선촌리 산 46-7(재난_솔고개),재난재해,1,200,360도전방면,30,,031-580-2141,37.67724698,127.4718257,2021-06-28
경기도 가평군청,,경기도 가평군 설악면 설곡리 435(양방교),생활방범,1,200,도로방면,30,2018-11,031-580-2571,37.63161093,127.5092078,2021-06-28
경기도 가평군청,,경기도 가평군 설악면 신천리 408-15(설악CU편의점),생활방범,3,200,도로방면,30,2013-08,031-580-2571,37.67678282,127.4932063,2021-06-28
경기도 가평군청,,경기도 가평군 설악면 신천리 413-26(청수타운),생활방범,1,200,도로방면,30,2017-06,031-580-2571,37.67760873,127.4924534,2021-06-28
경기도 가평군청,,경기도 가평군 설악면 신천리 471-4(통일교 청심교회),생활방범,2,200,도로방면,30,2017-06,031-580-2571,37.67955189,127.489155,2021-06-28
경기도 가평군청,,경기도 가평군 설악면 신천리 497-1(PC사랑사거리),생활방범,3,200,도로방면,30,2018-06,031-580-2571,37.67941904,127.4916424,2021-06-28
경기도 가평군청,,경기도 가평군 설악면 신천리 499-1(설악중고앞),생활방범,2,200,도로방면,30,2018-06,031-580-2571,37.68050447,127.4927832,2021-06-28
경기도 가평군청,,경기도 가평군 설악면 신천리 513-4(CU설악청심점),생활방범,1,200,도로방면,30,2018-11,031-580-2571,37.68199277,127.4911676,2021-06-28
경기도 가평군청,,경기도 가평군 설악면 신천리 518-2(설악체육공원1),생활방범,3,300,"공원내, 360도전방면",30,2015-10,031-580-2571,37.68362277,127.4898696,2021-06-28
경기도 가평군청,,경기도 가평군 설악면 신천리 672-3(설악 IC 입구),차량방범,1,300,도로방면,30,2018-12,031-580-2571,37.67032303,127.4883626,2021-06-28
경기도 가평군청,,경기도 가평군 설악면 신천리 산 1-5(설악체육공원2),생활방범,3,300,"공원내, 360도전방면",30,2015-10,031-580-2571,37.68398501,127.4894014,2021-06-28
경기도 가평군청,,경기도 가평군 설악면 신천리 산 60-22(설악IC 출),차량방범,2,200,도로방면,30,2016-06,031-580-2571,37.67036333,127.4886515,2021-06-28
경기도 가평군청,경기도 가평군 설악면 신천중앙로 122,경기도 가평군 설악면 신천리 437-6번지,교통단속,3,130,양방향,30,,031-580-2076,37.6783094,127.490456,2021-06-28
경기도 가평군청,,경기도 가평군 설악면 위곡리 47-10(널미재 고개(돌산막국수앞)),차량방범,2,150,도로방면,30,2010-06,031-580-2571,37.66889959,127.5347359,2021-06-28
경기도 가평군청,,경기도 가평군 설악면 위곡리 794-3(미원초 위곡분교앞),어린이보호,4,200,"초등학교정문방향, 360도전방면",30,2013-06,031-580-2571,37.66997839,127.5155631,2021-06-28
경기도 가평군청,,경기도 가평군 설악면 이천리 123-3(영천벌다락재입구),생활방범,2,200,도로방면,30,2018-06,031-580-2571,37.65544887,127.4424507,2021-06-28
경기도 가평군청,,경기도 가평군 설악면 창의리 436-2(창의리마을입구),생활방범,1,200,도로방면,30,2016-09,031-580-2571,37.67175288,127.5050571,2021-06-28
경기도 가평군청,,경기도 가평군 설악면 천안리 304-3(엄소삼거리),생활방범,1,200,도로방면,30,2017-06,031-580-2571,37.65528208,127.4819385,2021-06-28
경기도 가평군청,경기도 가평군 설악면 유명로 1837,경기도 가평군 설악면 회곡리 산 21-3(솔고개),생활방범,1,200,도로방면,30,2018-11,031-580-2571,37.67651871,127.4700624,2021-06-28
경기도 가평군청,,경기도 가평군 설악면 신천리 산65-3(명장삼거리),쓰레기단속,2,200,360도전방면,30,2015-07,031-580-2550,37.764931,127.3720647,2021-06-28
경기도 가평군청,,경기도 가평군 조종면 대보리 194-3(도장골낚시터 입구),쓰레기단속,1,200,360도전방면,30,2015-07,031-580-2550,37.8190103,127.3497898,2021-06-28
경기도 가평군청,,경기도 가평군 조종면 대보리 609-3(대보교),생활방범,2,200,도로방면,30,2015-11,031-580-2571,37.79622825,127.3707027,2021-06-28
경기도 가평군청,,경기도 가평군 조종면 대보리 613(조종암),재난재해,1,200,360도전방면,30,,031-580-2141,37.80029352,127.3763437,2021-06-28
경기도 가평군청,경기도 가평군 조종면 대보간선로 665-6,경기도 가평군 조종면 대보리 산 11(대보리국사),재난재해,1,200,360도전방면,30,,031-580-2141,37.8009653,127.3975452,2021-06-28
경기도 가평군청,,경기도 가평군 조종면 신상리 109-1(신상교앞),생활방범,2,200,도로방면,30,2016-07,031-580-2571,37.8446181,127.3557747,2021-06-28
경기도 가평군청,경기도 가평군 조종면 세곡로 68,경기도 가평군 조종면 현리 81-1번지,생활방범,1,200,도로방면,30,2018-06,031-580-2571,37.8334918,127.3394957,2021-06-28
경기도 가평군청,,경기도 가평군 조종면 신하리 452-9(조종천1(신하리)),재난재해,1,200,360도전방면,30,,031-580-2141,37.82215848,127.3546642,2021-06-28
경기도 가평군청,,경기도 가평군 조종면 신하리 453-3(우리술삼거리),생활방범,2,200,도로방면,30,2015-11,031-580-2571,37.82215106,127.355155,2021-06-28
경기도 가평군청,,경기도 가평군 조종면 운악리 253-7(노체교),생활방범,3,130,도로방면,30,2013-08,031-580-2571,37.87492549,127.3579982,2021-06-28
경기도 가평군청,경기도 가평군 조종면 현등사길 11,경기도 가평군 조종면 운악리 459번지,생활방범,4,200,도로방면,30,2016-07,031-580-2571,37.86522986,127.3493921,2021-06-28
경기도 가평군청,,경기도 가평군 조종면 운악리 산 178(꽃동네 야영장 앞),차량방범,2,200,도로방면,30,2012-01,031-580-2571,37.90758448,127.3430537,2021-06-28
경기도 가평군청,,경기도 가평군 조종면 현리 188-2 (석사울삼거리),생활방범,1,200,도로방면,30,2017-06,031-580-2571,37.82296394,127.3427813,2021-06-28
경기도 가평군청,,경기도 가평군 조종면 현리 233-46 (영양교앞 ),생활방범,3,200,도로방면,30,2017-06,031-580-2571,37.82163208,127.3499084,2021-06-28
경기도 가평군청,,경기도 가평군 조종면 현리 260-2(현리꼬끼오앞),생활방범,3,200,도로방면,30,2018-11,031-580-2571,37.81889471,127.3506615,2021-06-28
경기도 가평군청,,경기도 가평군 조종면 현리 262-29(현리시가지싱싱마트앞),생활방범,4,200,도로방면,30,2016-07,031-580-2571,37.81973974,127.3489697,2021-06-28
경기도 가평군청,,경기도 가평군 조종면 현리 263-25(식당가 앞),쓰레기단속,1,200,360도전방면,30,2015-07,031-580-2550,37.8190103,127.3497898,2021-06-28
경기도 가평군청,,경기도 가평군 조종면 현리 264-72(현리중국성앞),생활방범,5,200,도로방면,30,2018-11,031-580-2571,37.81900455,127.3492586,2021-06-28
경기도 가평군청,,경기도 가평군 조종면 현리 275-8(조종초후문),생활방범,3,200,도로방면,30,2016-07,031-580-2571,37.82055148,127.3490975,2021-06-28
경기도 가평군청,경기도 가평군 조종면 연등아랫길 20,경기도 가평군 조종면 현리 477-21번지,생활방범,2,200,도로방면,30,2016-07,031-580-2571,37.80899257,127.3496892,2021-06-28
경기도 가평군청,,경기도 가평군 조종면 현리 39-2(안곡사거리),생활방범,4,130,도로방면,30,2013-08,031-580-2571,37.82750243,127.3474086,2021-06-28
경기도 가평군청,,경기도 가평군 조종면 현리 410-23(현리버스터미널),생활방범,6,200,도로방면,30,2013-08,031-580-2571,37.81821562,127.3482904,2021-06-28
경기도 가평군청,,경기도 가평군 북면 소법리 617-1,재난재해,4,200,360도전방면,45,,031-580-4767,37.9061018,127.5451213,2021-06-28
경기도 가평군청,,경기도 가평군 북면 소법리 97-10(하남종 버스정류장),생활방범,1,200,도로방면,30,2017-06,031-580-2571,37.90056604,127.5607941,2021-06-28
경기도 가평군청,경기도 가평군 북면 석장모루길 13,경기도 가평군 북면 이곡리 13-45번지,어린이보호,3,300,"초등학교정문방향, 360도전방면",30,2015-07,031-580-2571,37.880255,127.5490362,2021-06-28
경기도 가평군청,,경기도 가평군 북면 이곡리 519-14(황금다리펜션),생활방범,1,200,도로방면,30,2016-12,031-580-2571,37.87636503,127.5271675,2021-06-28
경기도 가평군청,경기도 가평군 북면 가화로 692,경기도 가평군 북면 이곡리 605-19번지,생활방범,1,200,도로방면,30,2017-06,031-580-2571,37.8717595,127.5216801,2021-06-28
경기도 가평군청,,경기도 가평군 북면 이곡리 65(목동초 IGA마트앞),생활방범,1,200,도로방면,30,2017-06,031-580-2571,37.88032057,127.5463098,2021-06-28
경기도 가평군청,,경기도 가평군 북면 적목리 167-18(명지분교),어린이보호,3,300,"초등학교정문방향, 360도전방면",30,2013-07,031-580-2571,37.97063565,127.4550874,2021-06-28
경기도 가평군청,,경기도 가평군 북면 적목리 643(용수교 버스정류장),생활방범,1,200,도로방면,30,2017-06,031-580-2571,37.98690767,127.4374314,2021-06-28
경기도 가평군청,,경기도 가평군 북면 적목리 산 32-3(적목리라온펜션),생활방범,2,130,도로방면,30,2013-08,031-580-2571,38.02738435,127.4423276,2021-06-28
경기도 가평군청,,경기도 가평군 북면 적목리 산 45-6(재난38교),재난재해,2,200,360도전방면,30,,031-580-2141,37.98816973,127.4396161,2021-06-28
경기도 가평군청,,경기도 가평군 북면 제령리 290-4(꽃넘이길 펜션단지입구),생활방범,2,200,도로방면,30,2018-11,031-580-2571,37.89468308,127.5297478,2021-06-28
경기도 가평군청,경기도 가평군 북면 손일로 6,경기도 가평군 북면 제령리 4-6번지,생활방범,1,200,도로방면,30,2017-06,031-580-2571,37.8913598,127.5461443,2021-06-28
경기도 가평군청,,경기도 가평군 설악면 신천리 564-2(신천사거리),생활방범,4,200,도로방면,30,2018-06,031-580-2571,37.67792297,127.485194,2021-06-28
경기도 가평군청,경기도 가평군 설악면 신천중앙로120번길 5-17,경기도 가평군 설악면 신천리 438-3번지,생활방범,3,200,도로방면,30,2013-08,031-580-2571,37.6788204,127.4900682,2021-06-28
경기도 가평군청,,경기도 가평군 설악면 엄소리 31-10(활골 삼거리),쓰레기단속,1,200,360도전방면,30,2015-07,031-580-2550,37.6389541,127.5135608,2021-06-28
경기도 가평군청,,경기도 가평군 설악면 위곡리 산 2-2(널미재고개),재난재해,1,200,360도전방면,30,,031-580-2141,37.66327522,127.5503608,2021-06-28
경기도 가평군청,,경기도 가평군 설악면 회곡리 305-3(안골마을입구),생활방범,2,200,도로방면,30,2018-11,031-580-2571,37.70091357,127.4545344,2021-06-28
경기도 가평군청,,경기도 가평군 설악면 회곡리 산 58-9(용문교입구),생활방범,1,200,도로방면,30,2018-11,031-580-2571,37.68920459,127.4648509,2021-06-28
경기도 가평군청,,경기도 가평군 조종면 신하리 213(간촌 버스정류장 앞),쓰레기단속,1,200,360도전방면,30,2015-07,031-580-2550,37.8190103,127.3497898,2021-06-28
경기도 가평군청,,경기도 가평군 조종면 운악리 250-1(재난_노체교),재난재해,1,200,360도전방면,30,,031-580-2141,37.87566428,127.3569187,2021-06-28
경기도 고양시,경기도 고양시 덕양구 삼송동 396-7,경기도 고양시 덕양구 삼송동 396-7,생활방범,5,200,360도전방면,30,,031-8075-2578,37.6529417127,126.8884179018,2018-01-01
경기도 고양시,경기도 고양시 덕양구 원흥동 518-2,경기도 고양시 덕양구 원흥동 518-2,생활방범,5,200,360도전방면,30,,031-8075-2578,37.6512461739,126.8696212343,2018-01-01
경기도 고양시,경기도 고양시 덕양구 원흥동 689-11,경기도 고양시 덕양구 원흥동 689-11,생활방범,4,200,360도전방면,30,,031-8075-2578,37.6483316378,126.8737623460,2018-01-01
경기도 고양시,경기도 고양시 덕양구 삼송동 381-2,경기도 고양시 덕양구 삼송동 381-2,생활방범,5,200,360도전방면,30,,031-8075-2578,37.6421352736,126.8758918383,2018-01-01
경기도 고양시,경기도 고양시 덕양구 오금동 436-5,경기도 고양시 덕양구 오금동 436-5,생활방범,5,200,360도전방면,30,,031-8075-2578,37.6674106567,126.9200066210,2018-01-01
경기도 고양시,경기도 고양시 덕양구 오금동 319-5,경기도 고양시 덕양구 오금동 319-5,생활방범,4,200,360도전방면,30,,031-8075-2578,37.6603294895,126.8979263382,2018-01-01
경기도 고양시,경기도 고양시 덕양구 마상로63번길14-1,경기도 고양시 덕양구 주교동 309-5,생활방범,4,200,360도전방면,30,,031-8075-2578,37.6626570319,126.8313392176,2018-01-01
경기도 고양시,경기도 고양시 덕양구 마상로102번길51 주교동노인정,경기도 고양시 덕양구 주교동 587,생활방범,4,200,360도전방면,30,,031-8075-2578,37.6593803237,126.8332846861,2018-01-01
경기도 고양시,경기도 고양시 일산동구 장항동 906,경기도 고양시 일산동구 장항동 906,생활방범,5,200,,30,,031-8075-2578,37.6577996966,126.7634563581,2018-01-01
경기도 고양시,경기도 고양시 일산동구 호수로595 고양꽃전시관,경기도 고양시 일산동구 장항동 906,생활방범,5,200,360도전방면,30,,031-8075-2578,37.6577996966,126.7634563581,2018-01-01
경기도 고양시,경기도 고양시 일산동구 성현로268번길68-1,경기도 고양시 일산동구 성석동 55,생활방범,4,200,360도전방면,30,,031-8075-2578,37.7019561621,126.8130943250,2018-01-01
경기도 고양시,경기도 고양시 일산서구 일산동 605,경기도 고양시 일산서구 일산동 605,생활방범,3,41,360도전방면,30,,031-8075-2578,37.6864897148,126.7695995301,2018-01-01
경기도 고양시,,경기도 고양시 일산서구 주엽동 166,교통단속,1,52,,30,,031-8075-2578,37.6700206595,126.7609348421,2018-01-01
경기도 고양시,,경기도 고양시 일산서구 주엽동 155,교통단속,1,52,,30,,031-8075-2578,37.6709053632,126.7617934039,2018-01-01
경기도 고양시,경기도 고양시 일산서구 강선로33 강선마을14단지아파트 1402동,경기도 고양시 일산서구 주엽동 101,교통단속,1,52,,30,,031-8075-2578,37.6679040096,126.7612364025,2018-01-01
경기도 고양시,,경기도 고양시 덕양구 신원동 673,교통단속,5,200,,30,,031-8075-2578,37.6668857591,126.8854269654,2018-01-01
경기도 고양시,,경기도 고양시 덕양구 원흥동 689-4,교통단속,5,200,,30,,031-8075-2578,37.6494134922,126.8743950320,2018-01-01
경기도 고양시,,경기도 고양시 덕양구 원흥동 151-14,교통단속,5,200,,30,,031-8075-2578,37.6505219293,126.8746197539,2018-01-01
경기도 고양시,,경기도 고양시 덕양구 원흥동 산 31-13,교통단속,5,200,,30,,031-8075-2578,37.6494975462,126.8771484226,2018-01-01
경기도 고양시,경기도 고양시 덕양구 고양대로 1384번길 7-11,경기도 고양시 덕양구 성사동 720-1,교통단속,1,52,,30,,031-8075-2578,37.6536302186,126.8382838641,2018-01-01
경기도 고양시,경기도 고양시 덕양구 호국로 804,경기도 고양시 덕양구 성사동 510-5,교통단속,1,52,,30,,031-8075-2578,37.6572690416,126.8375052148,2018-01-01
경기도 고양시,경기도 고양시 덕양구 호국로 816,경기도 고양시 덕양구 성사동 502-6,교통단속,3,130,,30,,031-8075-2578,37.6579909865,126.8383422339,2018-01-01
경기도 고양시,,경기도 고양시 덕양구 삼송동 14-15,교통단속,5,200,,30,,031-8075-2578,37.6503543951,126.8963992868,2018-01-01
경기도 고양시,,경기도 고양시 덕양구 동산동 387,교통단속,5,200,,30,,031-8075-2578,37.6450741273,126.8862544717,2018-01-01
경기도 고양시,경기도 고양시 일산서구 고양대로629 한뫼초등학교,경기도 고양시 일산서구 일산동 960-9,생활방범,4,200,360도전방면,30,,031-8075-2578,37.6863755736,126.7665729053,2018-01-01
경기도 고양시,경기도 고양시 덕양구 마상로154번길14 동일빌딩,경기도 고양시 덕양구 성사동 500-19,생활방범,3,200,360도전방면,30,,031-8075-2578,37.6580997968,126.8388406336,2018-01-01
경기도 고양시,경기도 고양시 덕양구 성사동 865,경기도 고양시 덕양구 성사동 865,생활방범,3,200,360도전방면,30,,031-8075-2578,37.6585993110,126.8417293987,2018-01-01
경기도 고양시,경기도 고양시 덕양구 중앙로527 행신초등학교,경기도 고양시 덕양구 행신동 983-1,생활방범,5,200,360도전방면,30,,031-8075-2578,37.6216076950,126.8368479755,2018-01-01
경기도 고양시,경기도 고양시 덕양구 강매로214,경기도 고양시 덕양구 강매동 206,생활방범,5,200,360도전방면,30,,031-8075-2578,37.6061918520,126.8432581342,2018-01-01
경기도 고양시,경기도 고양시 일산서구 대수길31-5,경기도 고양시 일산서구 대화동 2316,생활방범,5,200,360도전방면,30,,031-8075-2578,37.6773249081,126.7387386305,2018-01-01
경기도 고양시,경기도 고양시 일산서구 덕이동 356,경기도 고양시 일산서구 덕이동 356,생활방범,5,41,360도전방면,30,,031-8075-2578,37.7027925899,126.7541607321,2018-01-01
경기도 고양시,경기도 고양시 일산서구 덕이동 산 138-5,경기도 고양시 일산서구 덕이동 산 138-5,생활방범,5,41,360도전방면,30,,031-8075-2578,37.6962394884,126.7526859408,2018-01-01
경기도 고양시,경기도 고양시 덕양구 고양동 1131,경기도 고양시 덕양구 고양동 1131,생활방범,4,200,360도전방면,30,,031-8075-2578,37.7148512726,126.9030551644,2018-01-01
경기도 고양시,경기도 고양시 덕양구 통일로542번길5-30,경기도 고양시 덕양구 대자동 358-6,생활방범,5,200,360도전방면,30,,031-8075-2578,37.6827995686,126.8882246625,2018-01-01
경기도 고양시,경기도 고양시 덕양구 대터2로6,경기도 고양시 덕양구 덕은동 138-2,생활방범,5,200,360도전방면,30,,031-8075-2578,37.5892752621,126.8760609583,2018-01-01
경기도 고양시,경기도 고양시 덕양구 흥도로53 서울자동차공업사,경기도 고양시 덕양구 화전동 455-12,생활방범,5,200,360도전방면,30,,031-8075-2578,37.6137806091,126.8668679458,2018-01-01
경기도 고양시,경기도 고양시 덕양구 관산동 211-4,경기도 고양시 덕양구 관산동 211-4,생활방범,5,200,360도전방면,30,,031-8075-2578,37.6864053371,126.8647854623,2018-01-01
경기도 고양시,경기도 고양시 덕양구 토당동 880-17,경기도 고양시 덕양구 토당동 880-17,생활방범,5,200,360도전방면,30,,031-8075-2578,37.6202441645,126.8284803733,2018-01-01
경기도 고양시,경기도 고양시 일산서구 탄중로284 한뫼도서관,경기도 고양시 일산서구 일산동 1558,생활방범,4,200,360도전방면,30,,031-8075-2578,37.6926836258,126.7764282637,2018-01-01
경기도 고양시,경기도 고양시 일산서구 고봉로291 에이스스타디움,경기도 고양시 일산서구 일산동 555-1,교통단속,1,41,,30,,031-8075-2578,37.6852069860,126.7771312064,2018-01-01
경기도 고양시,경기도 고양시 일산동구 강송로113번길36-14,경기도 고양시 일산동구 백석동 1206,생활방범,5,200,360도전방면,30,,031-8075-2578,37.6483813626,126.7850386061,2018-01-01
경기도 고양시,경기도 고양시 일산동구 강송로74번길53-7,경기도 고양시 일산동구 백석동 1156,생활방범,5,200,360도전방면,30,,031-8075-2578,37.6485455037,126.7910663590,2018-01-01
경기도 고양시,경기도 고양시 일산동구 호수로446번길73-16,경기도 고양시 일산동구 백석동 1412,생활방범,5,200,360도전방면,30,,031-8075-2578,37.6469941327,126.7803516125,2018-01-01
경기도 고양시,경기도 고양시 일산서구 덕이동 산 143-5,경기도 고양시 일산서구 덕이동 산 143-5,생활방범,4,41,360도전방면,30,,031-8075-2578,37.6988437270,126.7529039674,2018-01-01
경기도 고양시,경기도 고양시 덕양구 푸른마을로 16,경기도 고양시 덕양구 고양동 720,교통단속,5,130,,30,,031-8075-2578,37.7094556429,126.9043892468,2018-01-01
경기도 고양시,경기도 고양시 덕양구 신원동 679-2,경기도 고양시 덕양구 신원동 679-2,생활방범,5,200,360도전방면,30,,031-8075-2578,37.6616896854,126.8879738065,2018-01-01
경기도 고양시,경기도 고양시 일산서구 킨텍스로340 문촌마을7단지아파트 701동,경기도 고양시 일산서구 주엽동 14,교통단속,5,130,,30,,031-8075-2578,37.6745698137,126.7562386285,2018-01-01
경기도 고양시,경기도 고양시 일산서구 대산로125 하나프라자,경기도 고양시 일산서구 주엽동 30,교통단속,3,130,,30,,031-8075-2578,37.6743229763,126.7632445848,2018-01-01
경기도 고양시,경기도 고양시 일산서구 중앙로 1581,경기도 고양시 일산서구 대화동 2219-2,교통단속,5,200,,30,,031-8075-2578,37.6762150818,126.7461559562,2018-01-01
경기도 고양시,경기도 고양시 일산동구 중앙로1005 현대밀라트II B동,경기도 고양시 일산동구 백석동 1300,교통단속,5,130,,30,,031-8075-2578,37.6404900029,126.7906020397,2018-01-01
경기도 고양시,경기도 고양시 덕양구 혜음로13번길20,경기도 고양시 덕양구 고양동 240-38,생활방범,5,200,360도전방면,30,,031-8075-2578,37.7019293518,126.9005551493,2018-01-01
경기도 고양시,경기도 고양시 덕양구 벽제동 541-14,경기도 고양시 덕양구 벽제동 541-14,생활방범,5,200,360도전방면,30,,031-8075-2578,37.7287048199,126.9101716209,2018-01-01
경기도 고양시,경기도 고양시 덕양구 고양대로1730번길76,경기도 고양시 덕양구 원흥동 194-1,생활방범,4,41,360도전방면,30,,031-8075-2578,37.6455535972,126.8710024344,2018-01-01
경기도 고양시,경기도 고양시 덕양구 호국로834번길75 임창빌라,경기도 고양시 덕양구 성사동 488-63,생활방범,4,200,360도전방면,30,,031-8075-2578,37.6575200025,126.8430916479,2018-01-01
경기도 고양시,경기도 고양시 덕양구 도내동 58-1,경기도 고양시 덕양구 도내동 58-1,생활방범,4,200,360도전방면,30,,031-8075-2578,37.6297426397,126.8719819650,2018-01-01
경기도 고양시,경기도 고양시 덕양구 고양대로1407번길45-17 수정아파트 나동,경기도 고양시 덕양구 성사동 405-8,생활방범,4,200,360도전방면,30,,031-8075-2578,37.6557145745,126.8405344031,2018-01-01
경기도 고양시,경기도 고양시 일산동구 마두동 819,경기도 고양시 일산동구 마두동 819,생활방범,5,200,360도전방면,30,,031-8075-2578,37.6623545815,126.7797957672,2018-01-01
경기도 고양시,경기도 고양시 덕양구 소원로102,경기도 고양시 덕양구 행신동 812,교통단속,5,130,,30,,031-8075-2578,37.6124137695,126.8340369708,2018-01-01
경기도 고양시,경기도 고양시 덕양구 행신로1143번길,경기도 고양시 덕양구 행신동,교통단속,5,130,,30,,031-8075-2578,37.6157552212,126.8332252487,2018-01-01
경기도 고양시,경기도 고양시 덕양구 중앙로 559번길,경기도 고양시 덕양구 행신동 999-1,교통단속,1,41,,30,,031-8075-2578,37.6234697206,126.8347369258,2018-01-01
경기도 고양시,경기도 고양시 덕양구 행당로 11번길 6,경기도 고양시 덕양구 토당동 878,교통단속,3,130,,30,,031-8075-2578,37.6199704017,126.8261476647,2018-01-01
경기도 고양시,경기도 고양시 일산서구 주엽동 55GPS,경기도 고양시 일산서구 주엽동 55GPS,생활방범,3,200,360도전방면,30,,031-8075-2578,37.6697659071,126.7686317842,2018-01-01
경기도 고양시,경기도 고양시 일산서구 주엽동 34,경기도 고양시 일산서구 주엽동 34,생활방범,5,41,360도전방면,30,,031-8075-2578,37.6761819812,126.7647348868,2018-01-01
경기도 고양시,경기도 고양시 일산동구 강석로132-1 강촌공원 5분걸음 예쁜도서관,경기도 고양시 일산동구 마두동 791GPS,생활방범,4,200,360도전방면,30,,031-8075-2578,37.6534115275,126.7816809719,2018-01-01
경기도 고양시,경기도 고양시 일산동구 강석로132-1 강촌공원 5분걸음 예쁜도서관,경기도 고양시 일산동구 마두동 791,생활방범,5,200,360도전방면,30,,031-8075-2578,37.6534115275,126.7816809719,2018-01-01
경기도 고양시,경기도 고양시 일산동구 장항동 879,경기도 고양시 일산동구 장항동 879,생활방범,5,41,360도전방면,30,,031-8075-2578,37.6469972887,126.7772695637,2018-01-01
경기도 고양시,경기도 고양시 일산서구 일산동 1097,경기도 고양시 일산서구 일산동 1097,생활방범,4,41,360도전방면,30,,031-8075-2578,37.6761303249,126.7750729858,2018-01-01
경기도 고양시,경기도 고양시 일산서구 일산로604,경기도 고양시 일산서구 일산동 1043,생활방범,2,41,360도전방면,30,,031-8075-2578,37.6820970435,126.7626300883,2018-01-01
경기도 고양시,경기도 고양시 일산서구 산현로33,경기도 고양시 일산서구 탄현동 1580,생활방범,3,41,360도전방면,30,,031-8075-2578,37.6903733834,126.7653470950,2018-01-01
경기도 고양시,경기도 고양시 일산동구 일산로330번길32,경기도 고양시 일산동구 마두동 832-6GPS,생활방범,3,200,360도전방면,30,,031-8075-2578,37.6652129310,126.7858507938,2018-01-01
경기도 고양시,경기도 고양시 일산동구 일산로341 한국경진학교,경기도 고양시 일산동구 마두동 808,생활방범,3,200,360도전방면,30,,031-8075-2578,37.6652696086,126.7824051521,2018-01-01
경기도 고양시,경기도 고양시 덕양구 효자동 156-8,경기도 고양시 덕양구 효자동 156-8,생활방범,1,200,360도전방면,30,,031-8075-2578,37.6586877187,126.9482237158,2018-01-01
경기도 고양시,경기도 고양시 덕양구 행신동 1102,경기도 고양시 덕양구 행신동 1102,생활방범,5,200,360도전방면,30,,031-8075-2578,37.6176381128,126.8530877939,2018-01-01
경기도 고양시,경기도 고양시 덕양구 고양동 319GPS,경기도 고양시 덕양구 고양동 319GPS,생활방범,5,200,360도전방면,30,,031-8075-2578,37.7052413749,126.8965816294,2018-01-01
경기도 고양시,경기도 고양시 덕양구 주교동 561-562,경기도 고양시 덕양구 주교동 561-562,생활방범,1,200,360도전방면,30,,031-8075-2578,37.6650780412,126.8358104909,2018-01-01
경기도 고양시,경기도 고양시 덕양구 원당로69번길46,경기도 고양시 덕양구 주교동 313-16,생활방범,5,200,360도전방면,30,,031-8075-2578,37.6623005056,126.8340147114,2018-01-01
경기도 고양시,,경기도 고양시 일산서구 송포동 863-32,교통단속,5,130,,30,,031-8075-2578,37.6673530283,126.7277005477,2018-01-01
경기도 고양시,경기도 고양시 일산서구 중앙로1471 문촌마을13단지아파트 1301동,경기도 고양시 일산서구 주엽동 136,교통단속,1,41,,30,,031-8075-2578,37.6714084212,126.7567138159,2018-01-01
경기도 고양시,경기도 고양시 일산서구 중앙로1496 문촌마을11단지아파트 1101동,경기도 고양시 일산서구 주엽동 15,교통단속,1,52,,30,,031-8075-2578,37.6732434819,126.7553248826,2018-01-01
경기도 고양시,경기도 고양시 일산서구 중앙로1420 삼성증권빌딩,경기도 고양시 일산서구 주엽동 71-1,교통단속,1,52,,30,,031-8075-2578,37.6698259699,126.7626583171,2018-01-01
경기도 고양시,경기도 고양시 일산서구 일현로41,경기도 고양시 일산서구 탄현동 1563-7,교통단속,4,41,,30,,031-8075-2578,37.6909619939,126.7623747376,2018-01-01
경기도 고양시,경기도 고양시 덕양구 오금동 438-55,경기도 고양시 덕양구 오금동 438-55,생활방범,4,200,360도전방면,30,,031-8075-2578,37.6623275354,126.8955888501,2018-01-01
경기도 고양시,경기도 고양시 덕양구 충경로 151,경기도 고양시 덕양구 행신동 796,교통단속,5,130,,30,,031-8075-2578,37.6171949975,126.8449222657,2018-01-01
경기도 고양시,,경기도 고양시 일산동구 식사동 산 122-25,교통단속,5,130,,30,,031-8075-2578,37.6777104046,126.8125666463,2018-01-01
경기도 고양시,,경기도 고양시 일산동구 중산동 1373-6,교통단속,5,130,,30,,031-8075-2578,37.6982103253,126.7832034057,2018-01-01
경기도 고양시,,경기도 고양시 일산동구 중산동 모당초등학교 후문,교통단속,5,130,,30,,031-8075-2578,37.6888358799,126.7856685988,2018-01-01
경기도 고양시,경기도 고양시 일산동구 탄중로344 중산마을6단지아파트 606동,경기도 고양시 일산동구 중산동 1573,교통단속,5,130,,30,,031-8075-2578,37.6918465410,126.7816008677,2018-01-01
경기도 고양시,,경기도 고양시 일산동구 정발산동학원가2,교통단속,1,52,,30,,031-8075-2578,37.6731731834,126.7787432330,2018-01-01
경기도 고양시,,경기도 고양시 일산동구 풍동 1332,교통단속,1,52,,30,,031-8075-2578,37.6653550183,126.7998703148,2018-01-01
경기도 고양시,경기도 고양시 덕양구 화정동 949,경기도 고양시 덕양구 화정동 949,생활방범,4,200,360도전방면,30,,031-8075-2578,37.6283596327,126.8269321047,2018-01-01
경기도 고양시,경기도 고양시 덕양구 화신로272번길52 원빈프라자,경기도 고양시 덕양구 화정동 981GPS,생활방범,5,200,360도전방면,30,,031-8075-2578,37.6330520648,126.8319510814,2018-01-01
경기도 고양시,경기도 고양시 덕양구 화정동 1114,경기도 고양시 덕양구 화정동 1114,생활방범,5,200,,30,,031-8075-2578,37.6321920414,126.8353743452,2018-01-01
경기도 고양시,경기도 고양시 덕양구 지도로13번길27,경기도 고양시 덕양구 토당동 868,생활방범,5,200,360도전방면,30,,031-8075-2578,37.6189115601,126.8230353089,2018-01-01
경기도 고양시,경기도 고양시 덕양구 행주외동 92-2,경기도 고양시 덕양구 행주외동 92-2,생활방범,4,200,360도전방면,30,,031-8075-2578,37.6002231686,126.8216195153,2018-01-01
경기도 고양시,경기도 고양시 덕양구 토당동 890-1,경기도 고양시 덕양구 토당동 890-1,생활방범,4,200,360도전방면,30,,031-8075-2578,37.6196592965,126.8229882002,2018-01-01
경기도 고양시,경기도 고양시 일산서구 대화동 2257-11GPS,경기도 고양시 일산서구 대화동 2257-11GPS,생활방범,5,200,360도전방면,30,,031-8075-2578,37.6724584731,126.7505214964,2018-01-01
경기도 고양시,경기도 고양시 일산서구 대화동 2131-6GPS,경기도 고양시 일산서구 대화동 2131-6GPS,생활방범,4,200,360도전방면,30,,031-8075-2578,37.6794053178,126.7549643308,2018-01-01
경기도 고양시,경기도 고양시 일산서구 대산로226번길7-17,경기도 고양시 일산서구 대화동 2136,생활방범,5,41,360도전방면,30,,031-8075-2578,37.6794369052,126.7528557384,2018-01-01
경기도 고양시,경기도 고양시 일산서구 주화로202,경기도 고양시 일산서구 대화동 2225,생활방범,4,41,360도전방면,30,,031-8075-2578,37.6753522808,126.7471337673,2018-01-01
경기도 고양시,경기도 고양시 일산서구 대화동 2051-2,경기도 고양시 일산서구 대화동 2051-2,생활방범,4,200,360도전방면,30,,031-8075-2578,37.6831867325,126.7537160653,2018-01-01
경기도 고양시,경기도 고양시 일산동구 장항1동 613-3 앞 삼거리,경기도 고양시 일산동구 장항1동 613-3,생활방범,4,200,360도전방면,30,,031-8075-2578,37.6335774627,126.7749876990,2018-01-01
경기도 고양시,경기도 고양시 덕양구 화정동 954,경기도 고양시 덕양구 화정동 954,생활방범,5,200,360도전방면,30,,031-8075-2578,37.6329951013,126.8299573237,2018-01-01
경기도 고양시,경기도 고양시 덕양구 화중로32-31 효원빌딩,경기도 고양시 덕양구 화정동 1000-4,생활방범,5,200,360도전방면,30,,031-8075-2578,37.6300517069,126.8318673254,2018-01-01
경기도 고양시,경기도 고양시 일산서구 대화로166 송포치안센터,경기도 고양시 일산서구 대화동 2314,생활방범,4,200,360도전방면,30,,031-8075-2578,37.6703209860,126.7372106212,2018-01-01
경기도 고양시,경기도 고양시 일산서구 호수로856번길43 장촌초등학교,경기도 고양시 일산서구 대화동 2269,생활방범,5,200,360도전방면,30,,031-8075-2578,37.6728236784,126.7485706488,2018-01-01
경기도 고양시,경기도 고양시 일산동구 정발산동 1260,경기도 고양시 일산동구 정발산동 1260,생활방범,5,200,360도전방면,30,,031-8075-2578,37.6753770885,126.7816837925,2018-01-01
경기도 고양시,,경기도 고양시 일산서구 대화동 1375-3,차량방범,2,192,,30,,031-8075-2578,37.6656025021,126.7304384667,2018-01-01
경기도 고양시,,경기도 고양시 일산동구 식사동 513-4,차량방범,2,192,,30,,031-8075-2578,37.6646260649,126.8167595301,2018-01-01
경기도 고양시,,경기도 고양시 일산동구 장항동 502-149,차량방범,2,200,,30,,031-8075-2578,37.6449064366,126.7502974764,2018-01-01
경기도 고양시,,경기도 고양시 덕양구 벽제동 679-28,차량방범,2,700,,30,,031-8075-2578,37.7174350517,126.9007493196,2018-01-01
경기도 고양시,,경기도 고양시 일산동구 장항동 535-12,차량방범,1,700,,30,,031-8075-2578,37.6421330472,126.7596316896,2018-01-01
경기도 고양시,,경기도 고양시 덕양구 오금동 33-2 오금상촌공원,차량방범,2,140,,30,,031-8075-2578,37.6634096671,126.9190250515,2018-01-01
경기도 고양시,경기도 고양시 덕양구 마상로 134번길 109,경기도 고양시 덕양구 주교동 609-10,교통단속,5,130,,30,,031-8075-2578,37.6557139006,126.8336443289,2018-01-01
경기도 고양시,경기도 고양시 덕양구 원당로 33번길 28,경기도 고양시 덕양구 주교동 603,교통단속,1,41,,30,,031-8075-2578,37.6577102419,126.8310106196,2018-01-01
경기도 고양시,경기도 고양시 덕양구 관산동 115-3,경기도 고양시 덕양구 관산동 115-3,생활방범,5,200,360도전방면,30,,031-8075-2578,37.6888512523,126.8685109334,2018-01-01
경기도 고양시,경기도 고양시 덕양구 화정동 14-1,경기도 고양시 덕양구 화정동 14-1,생활방범,5,200,360도전방면,30,,031-8075-2578,37.6312218937,126.8439862905,2018-01-01
경기도 고양시,경기도 고양시 덕양구 행신동 910-1,경기도 고양시 덕양구 행신동 910-1,생활방범,5,200,360도전방면,30,,031-8075-2578,37.6265560409,126.8448684743,2018-01-01
경기도 고양시,경기도 고양시 덕양구 화중로 54,경기도 고양시 덕양구 화정동 984,교통단속,1,41,,30,,031-8075-2578,37.6318879536,126.8306735999,2018-01-01
경기도 고양시,경기도 고양시 덕양구 혜음로 16,경기도 고양시 덕양구 고양동 205,교통단속,1,52,,30,,031-8075-2578,37.7018224387,126.9019500405,2018-01-01
경기도 고양시,경기도 고양시 덕양구 화신로 254,경기도 고양시 덕양구 화정동 986-9,교통단속,1,52,,30,,031-8075-2578,37.6307473830,126.8332025025,2018-01-01
경기도 고양시,경기도 고양시 덕양구 화중로 104번길 13,경기도 고양시 덕양구 화정동 955,교통단속,1,41,,30,,031-8075-2578,37.6370527909,126.8322364845,2018-01-01
경기도 고양시,경기도 고양시 덕양구 성신로 55,경기도 고양시 덕양구 화정동 1131,교통단속,5,130,,30,,031-8075-2578,37.6278040311,126.8351802871,2018-01-01
경기도 고양시,경기도 고양시 일산서구 고양대로672번길15-9,경기도 고양시 일산서구 일산동 630-1,생활방범,4,200,360도전방면,30,,031-8075-2578,37.6825480954,126.7719358424,2018-01-01
경기도 고양시,경기도 고양시 일산서구 산현로107,경기도 고양시 일산서구 탄현동 1591-3,교통단속,5,130,,30,,031-8075-2578,37.6924877117,126.7729594486,2018-01-01
경기도 고양시,경기도 고양시 일산서구 산현로14,경기도 고양시 일산서구 일산동 2103,교통단속,4,130,,30,,031-8075-2578,37.6891797859,126.7632081261,2018-01-01
경기도 고양시,,경기도 고양시 일산서구 탄현동 1528,교통단속,5,130,,30,,031-8075-2578,37.6927124897,126.7681514521,2018-01-01
경기도 고양시,,경기도 고양시 일산서구 탄현동 1634-3,교통단속,5,200,,30,,031-8075-2578,37.7024308752,126.7666580206,2018-01-01
경기도 고양시,경기도 고양시 일산동구 풍동 1299,경기도 고양시 일산동구 풍동 1299,생활방범,5,200,360도전방면,30,,031-8075-2578,37.6658788808,126.8006282593,2018-01-01
경기도 고양시,경기도 고양시 일산동구 중산동 1803,경기도 고양시 일산동구 중산동 1803,생활방범,4,200,360도전방면,30,,031-8075-2578,37.6765751670,126.7864298204,2018-01-01
경기도 고양시,경기도 고양시 일산동구 호수로 606,경기도 고양시 일산동구 장항동 866,교통단속,5,130,,30,,031-8075-2578,37.6566846345,126.7690128618,2018-01-01
경기도 고양시,,경기도 고양시 일산동구 제2~3주차장사이,교통단속,3,130,,30,,031-8075-2578,,,2018-01-01
경기도 고양시,경기도 고양시 일산서구 고양대로 719-12,경기도 고양시 일산서구 일산동 1686,교통단속,4,200,,30,,031-8075-2578,37.6836568392,126.7768751626,2018-01-01
경기도 고양시,경기도 고양시 일산동구 강송로87번길12,경기도 고양시 일산동구 백석동 1252-7,생활방범,4,200,360도전방면,30,,031-8075-2578,37.6470719151,126.7882944389,2018-01-01
경기도 고양시,경기도 고양시 일산동구 백석로72번길31-12,경기도 고양시 일산동구 백석동 1269GPS,생활방범,5,200,360도전방면,30,,031-8075-2578,37.6460177250,126.7882634790,2018-01-01
경기도 고양시,경기도 고양시 일산동구 강촌로90 금계초등학교,경기도 고양시 일산동구 백석동 1192,생활방범,4,200,360도전방면,30,,031-8075-2578,37.6498301317,126.7840712005,2018-01-01
경기도 고양시,경기도 고양시 일산동구 강촌로26번길73,경기도 고양시 일산동구 백석동 1427-6,생활방범,5,200,360도전방면,30,,031-8075-2578,37.6442674264,126.7820706693,2018-01-01
경기도 고양시,경기도 고양시 일산동구 중산동 1555-1,경기도 고양시 일산동구 중산동 1555-1,생활방범,5,200,360도전방면,30,,031-8075-2578,37.6973765159,126.7805752898,2018-01-01
경기도 고양시,경기도 고양시 덕양구 푸른마을로63 목암초등학교,경기도 고양시 덕양구 고양동 722,생활방범,5,41,360도전방면,30,,031-8075-2578,37.7137353700,126.9045877235,2018-01-01
경기도 고양시,경기도 고양시 덕양구 대자동 1216,경기도 고양시 덕양구 대자동 1216,생활방범,3,200,360도전방면,30,,031-8075-2578,37.7110452272,126.8887255135,2018-01-01
경기도 고양시,경기도 고양시 덕양구 벽제동 257-2,경기도 고양시 덕양구 벽제동 257-2,생활방범,5,200,360도전방면,30,,031-8075-2578,37.7016254321,126.9033677269,2018-01-01
경기도 고양시,경기도 고양시 덕양구 고양동 328,경기도 고양시 덕양구 고양동 328,생활방범,5,200,360도전방면,30,,031-8075-2578,37.7046289262,126.8968093003,2018-01-01
경기도 고양시,경기도 고양시 덕양구 보광로12번길40 동원빌라,경기도 고양시 덕양구 고양동 920GPS,생활방범,4,200,360도전방면,30,,031-8075-2578,37.7160933185,126.9015564121,2018-01-01
경기도 고양시,경기도 고양시 일산서구 탄중로457-2,경기도 고양시 일산서구 일산동 580-36GPS,생활방범,4,200,360도전방면,30,,031-8075-2578,37.6875461642,126.7754008633,2018-01-01
경기도 고양시,경기도 고양시 일산서구 가좌동 1005-1,경기도 고양시 일산서구 가좌동 1005-1,생활방범,5,200,360도전방면,30,,031-8075-2578,37.6827352421,126.7212386416,2018-01-01
경기도 고양시,경기도 고양시 덕양구 충장로103번길148 로체스트,경기도 고양시 덕양구 행신동 644-34,생활방범,4,200,360도전방면,30,,031-8075-2578,37.6245790837,126.8293198186,2018-01-01
경기도 고양시,경기도 고양시 덕양구 행신로143번길116 조화빌딩,경기도 고양시 덕양구 행신동 644-44,생활방범,4,200,360도전방면,30,,031-8075-2578,37.6239125991,126.8294799536,2018-01-01
경기도 고양시,경기도 고양시 덕양구 행신동 975,경기도 고양시 덕양구 행신동 975,생활방범,5,200,360도전방면,30,,031-8075-2578,37.6189170360,126.8391759477,2018-01-01
경기도 고양시,경기도 고양시 덕양구 행신동 1001,경기도 고양시 덕양구 행신동 1001,생활방범,4,200,360도전방면,30,,031-8075-2578,37.6249167378,126.8322642313,2018-01-01
경기도 고양시,경기도 고양시 덕양구 행신동 978,경기도 고양시 덕양구 행신동 978,생활방범,4,200,360도전방면,30,,031-8075-2578,37.6191927740,126.8366268095,2018-01-01
경기도 고양시,경기도 고양시 덕양구 용현로5번길54,경기도 고양시 덕양구 행신동 760,생활방범,5,200,360도전방면,30,,031-8075-2578,37.6148026700,126.8349603138,2018-01-01
경기도 고양시,경기도 고양시 일산서구 대화동 2123-4,경기도 고양시 일산서구 대화동 2123-4,생활방범,5,200,360도전방면,30,,031-8075-2578,37.6794881405,126.7557915804,2018-01-01
경기도 고양시,경기도 고양시 덕양구 고양동 974,경기도 고양시 덕양구 고양동 974,생활방범,4,200,360도전방면,30,,031-8075-2578,37.7176791708,126.9017470629,2018-01-01
경기도 고양시,경기도 고양시 덕양구 선유동 523-3,경기도 고양시 덕양구 선유동 523-3,생활방범,3,200,360도전방면,30,,031-8075-2578,37.6779083589,126.9098607889,2018-01-01
경기도 고양시,경기도 고양시 덕양구 고양동 8-4,경기도 고양시 덕양구 고양동 8-4,생활방범,5,200,360도전방면,30,,031-8075-2578,37.7079849681,126.9018963221,2018-01-01
경기도 고양시,경기도 고양시 덕양구 용현로53번길49,경기도 고양시 덕양구 행신동 739,생활방범,5,200,360도전방면,30,,031-8075-2578,37.6187752111,126.8344303493,2018-01-01
경기도 고양시,경기도 고양시 덕양구 행신동 694,경기도 고양시 덕양구 행신동 694,생활방범,5,200,360도전방면,30,,031-8075-2578,37.6172456834,126.8296766615,2018-01-01
경기도 고양시,경기도 고양시 덕양구 행신동 734,경기도 고양시 덕양구 행신동 734,생활방범,5,41,360도전방면,30,,031-8075-2578,37.6177724506,126.8325637226,2018-01-01
경기도 고양시,경기도 고양시 일산서구 고양대로255번길27 고양한내초등학교,경기도 고양시 일산서구 대화동 882,생활방범,5,200,360도전방면,30,,031-8075-2578,37.6684345288,126.7356872184,2018-01-01
경기도 고양시,경기도 고양시 일산서구 송포로50 대화초등학교,경기도 고양시 일산서구 대화동 1643,생활방범,5,200,360도전방면,30,,031-8075-2578,37.6711840178,126.7324129692,2018-01-01
경기도 고양시,경기도 고양시 일산서구 법곳동 268-6,경기도 고양시 일산서구 법곳동 268-6,생활방범,4,200,360도전방면,30,,031-8075-2578,37.6587996536,126.7263268518,2018-01-01
경기도 고양시,경기도 고양시 일산서구 법곳길145-24,경기도 고양시 일산서구 법곳동 1711,생활방범,4,200,360도전방면,30,,031-8075-2578,37.6630133490,126.7213245030,2018-01-01
경기도 고양시,경기도 고양시 일산서구 가좌동 413-15,경기도 고양시 일산서구 가좌동 413-15,생활방범,5,200,360도전방면,30,,031-8075-2578,37.6877118338,126.7188503480,2018-01-01
경기도 고양시,경기도 고양시 일산서구 덕이동 748-11,경기도 고양시 일산서구 덕이동 748-11,생활방범,5,200,360도전방면,30,,031-8075-2578,37.6972949489,126.7408561610,2018-01-01
경기도 고양시,경기도 고양시 일산서구 덕이동 산 145-1,경기도 고양시 일산서구 덕이동 산 145-1,생활방범,5,41,360도전방면,30,,031-8075-2578,37.7017929857,126.7543795197,2018-01-01
경기도 고양시,경기도 고양시 일산서구 덕이동 산 130-14,경기도 고양시 일산서구 덕이동 산 130-14,생활방범,5,41,360도전방면,30,,031-8075-2578,37.6962669668,126.7486833528,2018-01-01
경기도 고양시,경기도 고양시 일산서구 대화로355,경기도 고양시 일산서구 대화동 2337,생활방범,4,200,360도전방면,30,,031-8075-2578,37.6851235202,126.7493562484,2018-01-01
경기도 고양시,경기도 고양시 덕양구 푸른마을로37 푸른마을7단지아파트 701동,경기도 고양시 덕양구 고양동 752,생활방범,5,200,360도전방면,30,,031-8075-2578,37.7114559812,126.9046360979,2018-01-01
경기도 고양시,경기도 고양시 일산동구 백석동 1432,경기도 고양시 일산동구 백석동 1432,생활방범,4,200,360도전방면,30,,031-8075-2578,37.6433533822,126.7799092544,2018-01-01
경기도 고양시,경기도 고양시 일산서구 일산동 524-8,경기도 고양시 일산서구 일산동 524-8,생활방범,5,200,,30,,031-8075-2578,37.6807678024,126.7737891556,2018-01-01
경기도 고양시,경기도 고양시 일산서구 법곳동 1191-16,경기도 고양시 일산서구 법곳동 1191-16,생활방범,5,200,360도전방면,30,,031-8075-2578,37.6694341444,126.6983253762,2018-01-01
경기도 고양시,경기도 고양시 덕양구 읍내로 13,경기도 고양시 덕양구 고양동 248-17,교통단속,4,130,,30,,031-8075-2578,37.6995692662,126.9010573112,2018-01-01
경기도 고양시,,경기도 고양시 덕양구 고양동 706,교통단속,5,200,,30,,031-8075-2578,37.7105188036,126.9044218618,2018-01-01
경기도 고양시,경기도 고양시 덕양구 화중로 66,경기도 고양시 덕양구 화정동 982,교통단속,5,130,,30,,031-8075-2578,37.6328886070,126.8310678021,2018-01-01
경기도 고양시,경기도 고양시 덕양구 화중로152번길 43,경기도 고양시 덕양구 화정동 871,교통단속,5,130,,30,,031-8075-2578,37.6405537186,126.8358427656,2018-01-01
경기도 고양시,경기도 고양시 덕양구 화정로60,경기도 고양시 덕양구 화정동 1098,교통단속,5,130,,30,,031-8075-2578,37.6344683680,126.8331827128,2018-01-01
경기도 고양시,경기도 고양시 일산서구 일산동 1557-1,경기도 고양시 일산서구 일산동 1557-1,생활방범,5,41,360도전방면,30,,031-8075-2578,37.6942345752,126.7771038397,2018-01-01
경기도 고양시,경기도 고양시 일산동구 대산로11번길37 저동초등학교,경기도 고양시 일산동구 정발산동 688GPS,생활방범,5,200,360도전방면,30,,031-8075-2578,37.6678486198,126.7741235603,2018-01-01
경기도 고양시,경기도 고양시 덕양구 고양동 184-49,경기도 고양시 덕양구 고양동 184-49,생활방범,5,200,360도전방면,30,,031-8075-2578,37.7051032832,126.9035331754,2018-01-01
경기도 고양시,경기도 고양시 덕양구 성사동 404-4GPS,경기도 고양시 덕양구 성사동 404-4GPS,생활방범,4,200,360도전방면,30,,031-8075-2578,37.6559690948,126.8421770470,2018-01-01
경기도 고양시,경기도 고양시 덕양구 호국로851,경기도 고양시 덕양구 성사동 714,생활방범,4,41,360도전방면,30,,031-8075-2578,37.6607960807,126.8405686705,2018-01-01
경기도 고양시,경기도 고양시 덕양구 호국로789번길32 동명빌딩,경기도 고양시 덕양구 주교동 617-8,생활방범,5,41,360도전방면,30,,031-8075-2578,37.6577428380,126.8348749846,2018-01-01
경기도 고양시,,경기도 고양시 덕양구 화정동 985,교통단속,5,200,,30,,031-8075-2578,37.6313041524,126.8319324275,2018-01-01
경기도 고양시,경기도 고양시 덕양구 행주로 17번길,경기도 고양시 덕양구 행주내동 316-1,교통단속,4,130,,30,,031-8075-2578,37.6015854699,126.8288183661,2018-01-01
경기도 고양시,경기도 고양시 덕양구 화신로 21,경기도 고양시 덕양구 행신동 770,교통단속,5,130,,30,,031-8075-2578,37.6148071716,126.8381542782,2018-01-01
경기도 고양시,경기도 고양시 덕양구 소만로 22,경기도 고양시 덕양구 행신동 789,교통단속,5,130,,30,,031-8075-2578,37.6148041682,126.8425148529,2018-01-01
경기도 고양시,경기도 고양시 덕양구 중앙로 557번길,경기도 고양시 덕양구 행신동 950,교통단속,1,41,,30,,031-8075-2578,37.6236064427,126.8358467114,2018-01-01
경기도 고양시,경기도 고양시 덕양구 중앙로 472번길,경기도 고양시 덕양구 행신동 180-11,교통단속,1,41,,30,,031-8075-2578,37.6190574001,126.8429814434,2018-01-01
경기도 고양시,경기도 고양시 덕양구 지도로35번길 3,경기도 고양시 덕양구 토당동 865,교통단속,5,130,,30,,031-8075-2578,37.6201656984,126.8242102919,2018-01-01
경기도 고양시,경기도 고양시 덕양구 읍내로81-1 경천다세대,경기도 고양시 덕양구 고양동 366,생활방범,5,200,360도전방면,30,,031-8075-2578,37.7047383282,126.8982493025,2018-01-01
경기도 고양시,경기도 고양시 일산서구 강선로77 강선초등학교,경기도 고양시 일산서구 주엽동 64,생활방범,4,200,360도전방면,30,,031-8075-2578,37.6709657963,126.7649329111,2018-01-01
경기도 고양시,경기도 고양시 일산서구 주엽동 91GPS,경기도 고양시 일산서구 주엽동 91GPS,생활방범,5,200,360도전방면,30,,031-8075-2578,37.6654941288,126.7635449836,2018-01-01
경기도 고양시,경기도 고양시 일산서구 주엽동 118,경기도 고양시 일산서구 주엽동 118,생활방범,6,200,360도전방면,30,,031-8075-2578,37.6676030342,126.7594579160,2018-01-01
경기도 고양시,경기도 고양시 일산서구 강성로124,경기도 고양시 일산서구 주엽동 78,생활방범,5,200,360도전방면,30,,031-8075-2578,37.6729080567,126.7630451056,2018-01-01
경기도 고양시,경기도 고양시 일산서구 강선로123 문화초등학교,경기도 고양시 일산서구 주엽동 37,생활방범,5,200,360도전방면,30,,031-8075-2578,37.6746288523,126.7674943103,2018-01-01
경기도 고양시,경기도 고양시 일산서구 강선로29 주엽초등학교,경기도 고양시 일산서구 주엽동 100,생활방범,4,200,360도전방면,30,,031-8075-2578,37.6670761012,126.7617151178,2018-01-01
경기도 고양시,경기도 고양시 일산서구 일산동 954-95,경기도 고양시 일산서구 일산동 954-95,생활방범,4,200,360도전방면,30,,031-8075-2578,37.6844347533,126.7647085043,2018-01-01
경기도 고양시,경기도 고양시 일산동구 마두동756,경기도 고양시 일산동구 마두동756,생활방범,5,200,360도전방면,30,,031-8075-2578,37.6553832681,126.7857887485,2018-01-01
경기도 고양시,경기도 고양시 일산동구 마두동 790,경기도 고양시 일산동구 마두동 790,생활방범,4,200,360도전방면,30,,031-8075-2578,37.6529072007,126.7817957871,2018-01-01
경기도 고양시,경기도 고양시 일산동구 마두동 780,경기도 고양시 일산동구 마두동 780,생활방범,4,200,360도전방면,30,,031-8075-2578,37.6548517000,126.7857902961,2018-01-01
경기도 고양시,경기도 고양시 일산동구 장항로225번길72 장항1동주민센터,경기도 고양시 일산동구 장항동 578-2,생활방범,5,200,360도전방면,30,,031-8075-2578,37.6415515489,126.7706238766,2018-01-01
경기도 고양시,경기도 고양시 일산동구 중앙로1261번길55,경기도 고양시 일산동구 장항동 861,생활방범,4,41,360도전방면,30,,031-8075-2578,37.6574900711,126.7708235546,2018-01-01
경기도 고양시,경기도 고양시 덕양구 호국로812번길40 신성빌라 40동,경기도 고양시 덕양구 성사동 506-40GPS,생활방범,3,200,360도전방면,30,,031-8075-2578,37.6568848449,126.8398179050,2018-01-01
경기도 고양시,경기도 고양시 덕양구 호국로716번길13-17,경기도 고양시 덕양구 성사동 736GPS,생활방범,4,200,360도전방면,30,,031-8075-2578,37.6517666613,126.8329507178,2018-01-01
경기도 고양시,경기도 고양시 덕양구 성사동 729,경기도 고양시 덕양구 성사동 729,생활방범,5,200,360도전방면,30,,031-8075-2578,37.6520511124,126.8365649152,2018-01-01
경기도 고양시,경기도 고양시 덕양구 성사동 728,경기도 고양시 덕양구 성사동 728,생활방범,5,200,360도전방면,30,,031-8075-2578,37.6533527688,126.8332304035,2018-01-01
경기도 고양시,경기도 고양시 일산서구 일중로79번길12-2,경기도 고양시 일산서구 일산동 587-23,생활방범,3,200,360도전방면,30,,031-8075-2578,37.6864901595,126.7744291038,2018-01-01
경기도 고양시,경기도 고양시 일산서구 일산동 637-59,경기도 고양시 일산서구 일산동 637-59,생활방범,5,200,360도전방면,30,,031-8075-2578,37.6851798230,126.7724038299,2018-01-01
경기도 고양시,경기도 고양시 일산서구 후곡로52 신촌초등학교,경기도 고양시 일산서구 일산동 1068,생활방범,4,41,360도전방면,30,,031-8075-2578,37.6812385248,126.7657956652,2018-01-01
경기도 고양시,경기도 고양시 일산서구 일산로555,경기도 고양시 일산서구 일산동 1062-1GPS,생활방범,3,200,360도전방면,30,,031-8075-2578,37.6779327154,126.7661575926,2018-01-01
경기도 고양시,경기도 고양시 일산서구 강선로183 고양신일초등학교,경기도 고양시 일산서구 일산동 1075,생활방범,3,200,360도전방면,30,,031-8075-2578,37.6791578441,126.7705973783,2018-01-01
경기도 고양시,경기도 고양시 일산동구 일산로355 경기도 고양시립마두도서관,경기도 고양시 일산동구 마두동 1112GPS,생활방범,3,200,360도전방면,30,,031-8075-2578,37.6672410147,126.7814925924,2018-01-01
경기도 고양시,경기도 고양시 일산동구 마두동 958,경기도 고양시 일산동구 마두동 958,생활방범,5,200,360도전방면,30,,031-8075-2578,37.6598203558,126.7832599081,2018-01-01
경기도 고양시,경기도 고양시 덕양구 충장로103번길60 무궁화아파트 2동,경기도 고양시 덕양구 행신동 634-85GPS,생활방범,5,200,360도전방면,30,,031-8075-2578,37.6221925273,126.8300163306,2018-01-01
경기도 고양시,경기도 고양시  일산동구 백석동 1237,경기도 고양시  일산동구 백석동 1237,생활방범,2,200,360도전방면,30,,031-8075-2578,37.6423587337,126.7926815021,2018-01-01
경기도 고양시,경기도 고양시 덕양구 대자동 19-4,경기도 고양시 덕양구 대자동 19-4,생활방범,5,200,360도전방면,30,,031-8075-2578,37.6942430832,126.8993411844,2018-01-01
경기도 고양시,경기도 고양시 덕양구 토당동 248-9,경기도 고양시 덕양구 토당동 248-9,생활방범,5,200,360도전방면,30,,031-8075-2578,37.6271027003,126.8180425766,2018-01-01
경기도 고양시,경기도 고양시 덕양구 행신동 1068,경기도 고양시 덕양구 행신동 1068,생활방범,5,200,360도전방면,30,,031-8075-2578,37.6209427861,126.8515973157,2018-01-01
경기도 고양시,경기도 고양시 덕양구 대자동 142-2,경기도 고양시 덕양구 대자동 142-2,생활방범,5,200,360도전방면,30,,031-8075-2578,37.6821287269,126.8933610774,2018-01-01
경기도 고양시,경기도 고양시 덕양구 고양동 62-2,경기도 고양시 덕양구 고양동 62-2,생활방범,6,200,360도전방면,30,,031-8075-2578,37.7044872392,126.8995877507,2018-01-01
경기도 고양시,경기도 고양시 일산동구 중앙로1275번길38-31 라페스타A,경기도 고양시 일산동구 장항동 766GPS,생활방범,4,200,360도전방면,30,,031-8075-2578,37.6606585024,126.7693177233,2018-01-01
경기도 고양시,경기도 고양시 일산동구 장항동 873,경기도 고양시 일산동구 장항동 873,생활방범,4,200,360도전방면,30,,031-8075-2578,37.6507129468,126.7744934157,2018-01-01
경기도 고양시,경기도 고양시 일산동구 장항동 1518,경기도 고양시 일산동구 장항동 1518,생활방범,4,200,360도전방면,30,,031-8075-2578,37.6581320489,126.7674330742,2018-01-01
경기도 고양시,경기도 고양시 일산동구 호수로595 고양꽃전시관,경기도 고양시 일산동구 장항동 906,생활방범,2,200,360도전방면,30,,031-8075-2578,37.6577996966,126.7634563581,2018-01-01
경기도 고양시,경기도 고양시 덕양구 주교동 296,경기도 고양시 덕양구 주교동 296,생활방범,4,200,360도전방면,30,,031-8075-2578,37.6627980684,126.8292082069,2018-01-01
경기도 고양시,경기도 고양시 덕양구 대주로463,경기도 고양시 덕양구 주교동 1069-4,생활방범,2,200,360도전방면,30,,031-8075-2578,37.6562463226,126.8220726984,2018-01-01
경기도 고양시,경기도 고양시 덕양구 원당로59번길74 미도3차아파트,경기도 고양시 덕양구 주교동 591-5,생활방범,4,200,360도전방면,30,,031-8075-2578,37.6603500354,126.8309818680,2018-01-01
경기도 고양시,경기도 고양시 일산서구 주엽로214 오마초등학교,경기도 고양시 일산서구 주엽동 33,교통단속,5,130,,30,,031-8075-2578,37.6767093398,126.7626587974,2018-01-01
경기도 고양시,,경기도 고양시 일산서구 주엽동 123,교통단속,5,130,,30,,031-8075-2578,37.6684347604,126.7564856180,2018-01-01
경기도 고양시,,경기도 고양시 일산서구 주엽동 169,교통단속,5,130,,30,,031-8075-2578,37.6667438803,126.7622715599,2018-01-01
경기도 고양시,경기도 고양시 일산서구 주화로 84,경기도 고양시 일산서구 주엽2동 114,교통단속,1,52,,30,,031-8075-2578,37.6702416029,126.7588485665,2018-01-01
경기도 고양시,경기도 고양시 일산서구 중앙로1371 강선마을13단지아파트 1302동,경기도 고양시 일산서구 주엽동 81,교통단속,1,52,,30,,031-8075-2578,37.6666253161,126.7660121649,2018-01-01
경기도 고양시,,경기도 고양시 일산서구 주엽동 166-12,교통단속,1,52,,30,,031-8075-2578,37.6695183262,126.7620132453,2018-01-01
경기도 고양시,경기도 고양시 일산서구 현중로47 상탄초등학교,경기도 고양시 일산서구 탄현동 1483,교통단속,5,130,,30,,031-8075-2578,37.6947638619,126.7667390375,2018-01-01
경기도 고양시,경기도 고양시 덕양구 중앙로62번길32,경기도 고양시 덕양구 덕은동 12,생활방범,5,200,360도전방면,30,,031-8075-2578,37.5962250503,126.8791177891,2018-01-01
경기도 고양시,경기도 고양시 덕양구 현천동 312-1GPS,경기도 고양시 덕양구 현천동 312-1GPS,생활방범,5,41,360도전방면,30,,031-8075-2578,37.5896168856,126.8596543125,2018-01-01
경기도 고양시,경기도 고양시 덕양구 대덕로86번길76-3,경기도 고양시 덕양구 현천동 162-1,생활방범,5,200,360도전방면,30,,031-8075-2578,37.5941679741,126.8682850592,2018-01-01
경기도 고양시,경기도 고양시 덕양구 대덕산로30,경기도 고양시 덕양구 덕은동 422-1,생활방범,5,200,360도전방면,30,,031-8075-2578,37.5810584511,126.8603726138,2018-01-01
경기도 고양시,경기도 고양시 덕양구 현천동 185-10,경기도 고양시 덕양구 현천동 185-10,생활방범,5,200,360도전방면,30,,031-8075-2578,37.5954167520,126.8651802489,2018-01-01
경기도 고양시,경기도 고양시 덕양구 덕은동 120-10,경기도 고양시 덕양구 덕은동 120-10,생활방범,4,200,360도전방면,30,,031-8075-2578,37.5898080859,126.8772262580,2018-01-01
경기도 고양시,경기도 고양시 덕양구 원당동 372-2,경기도 고양시 덕양구 원당동 372-2,생활방범,1,200,360도전방면,30,,031-8075-2578,37.6739616510,126.8491206955,2018-01-01
경기도 고양시,경기도 고양시 덕양구 용두동 438-5,경기도 고양시 덕양구 용두동 438-5,생활방범,1,200,360도전방면,30,,031-8075-2578,37.6304653005,126.8821990332,2018-01-01
경기도 고양시,경기도 고양시 덕양구 고양동 955,경기도 고양시 덕양구 고양동 955,생활방범,5,200,360도전방면,30,,031-8075-2578,37.7169577890,126.9010335170,2018-01-01
경기도 고양시,경기도 고양시 덕양구 무원로 47,경기도 고양시 덕양구 행신동 696,교통단속,5,130,,30,,031-8075-2578,37.6172756381,126.8316813869,2018-01-01
경기도 고양시,경기도 고양시 덕양구 화신로 148,경기도 고양시 덕양구 행신동 924,교통단속,3,130,,30,,031-8075-2578,37.6248853731,126.8420061076,2018-01-01
경기도 고양시,경기도 고양시 일산동구 동국로 32,경기도 고양시 일산동구 식사동 814-11,교통단속,5,130,,30,,031-8075-2578,37.6776560747,126.8068989384,2018-01-01
경기도 고양시,경기도 고양시 일산동구 하늘마을로 144,경기도 고양시 일산동구 중산동 모당초등학교 정문,교통단속,5,130,,30,,031-8075-2578,37.6793488276,126.7808784846,2018-01-01
경기도 고양시,,경기도 고양시 일산동구 중산동 1805,교통단속,4,130,,30,,031-8075-2578,37.6751307085,126.7848470738,2018-01-01
경기도 고양시,,경기도 고양시 일산동구 중산동 1814,교통단속,5,130,,30,,031-8075-2578,37.6744602965,126.7877395122,2018-01-01
경기도 고양시,,경기도 고양시 일산동구 중산동 1662,교통단속,4,130,,30,,031-8075-2578,37.6844074493,126.7783466581,2018-01-01
경기도 고양시,경기도 고양시 일산동구 대산로11번길37 저동초등학교,경기도 고양시 일산동구 정발산동 688,교통단속,5,130,,30,,031-8075-2578,37.6678486198,126.7741235603,2018-01-01
경기도 고양시,,경기도 고양시 일산동구 정발산동학원가1,교통단속,1,52,,30,,031-8075-2578,37.6731731834,126.7787432330,2018-01-01
경기도 고양시,,경기도 고양시 일산동구 풍동 1330,교통단속,1,52,,30,,031-8075-2578,37.6660712726,126.7972615602,2018-01-01
경기도 고양시,경기도 고양시 일산동구 호수로336 브라운스톤,경기도 고양시 일산동구 백석동 1330,교통단속,5,130,,30,,031-8075-2578,37.6374395266,126.7877330060,2018-01-01
경기도 고양시,경기도 고양시 덕양구 화정동 985,경기도 고양시 덕양구 화정동 985,생활방범,4,200,360도전방면,30,,031-8075-2578,37.6313041524,126.8319324275,2018-01-01
경기도 고양시,경기도 고양시 덕양구 화정동 989,경기도 고양시 덕양구 화정동 989,생활방범,5,200,360도전방면,30,,031-8075-2578,37.6330491011,126.8361767747,2018-01-01
경기도 고양시,경기도 고양시 덕양구 성신로55 시립백양어린이집,경기도 고양시 덕양구 화정동 1131,생활방범,5,200,360도전방면,30,,031-8075-2578,37.6278040311,126.8351802871,2018-01-01
경기도 고양시,경기도 고양시 덕양구 화정동 1114,경기도 고양시 덕양구 화정동 1114,생활방범,5,200,360도전방면,30,,031-8075-2578,37.6321920414,126.8353743452,2018-01-01
경기도 고양시,경기도 고양시 덕양구 지도로80번길15,경기도 고양시 덕양구 토당동 854-2,생활방범,5,200,360도전방면,30,,031-8075-2578,37.6244377332,126.8251515867,2018-01-01
경기도 고양시,경기도 고양시 덕양구 동산동 170-3,경기도 고양시 덕양구 동산동 170-3,생활방범,4,200,360도전방면,30,,031-8075-2578,37.6441036281,126.8888620280,2018-01-01
경기도 고양시,경기도 고양시 덕양구 삼송동 190-5,경기도 고양시 덕양구 삼송동 190-5,생활방범,4,200,360도전방면,30,,031-8075-2578,37.6455758929,126.8834776346,2018-01-01
경기도 고양시,경기도 고양시 덕양구 동산동 38-1,경기도 고양시 덕양구 동산동 38-1,생활방범,5,200,360도전방면,30,,031-8075-2578,37.6473037124,126.9004715038,2018-01-01
경기도 고양시,경기도 고양시 덕양구 토당동 862-3,경기도 고양시 덕양구 토당동 862-3,생활방범,4,200,360도전방면,30,,031-8075-2578,37.6190831413,126.8232954119,2018-01-01
경기도 고양시,경기도 고양시 덕양구 행주로17번길70,경기도 고양시 덕양구 행주내동 175,생활방범,4,200,360도전방면,30,,031-8075-2578,37.6029397710,126.8246818230,2018-01-01
경기도 고양시,경기도 고양시 덕양구 행당로11번길25-6 장미8차아파트 801동,경기도 고양시 덕양구 토당동 873,생활방범,4,200,360도전방면,30,,031-8075-2578,37.6213308839,126.8261557713,2018-01-01
경기도 고양시,경기도 고양시 덕양구 토당동 120-15,경기도 고양시 덕양구 토당동 120-15,생활방범,5,200,360도전방면,30,,031-8075-2578,37.6290197656,126.8225691510,2018-01-01
경기도 고양시,경기도 고양시 덕양구 토당동 53-2,경기도 고양시 덕양구 토당동 53-2,생활방범,5,200,360도전방면,30,,031-8075-2578,37.6243584990,126.8204621499,2018-01-01
경기도 고양시,경기도 고양시 일산서구 주엽로118 한수초등학교,경기도 고양시 일산서구 주엽동 116,생활방범,5,200,360도전방면,30,,031-8075-2578,37.6689590657,126.7573226273,2018-01-01
경기도 고양시,경기도 고양시 일산서구 대화동 2179-11GPS,경기도 고양시 일산서구 대화동 2179-11GPS,생활방범,4,200,360도전방면,30,,031-8075-2578,37.6764916154,126.7532623647,2018-01-01
경기도 고양시,경기도 고양시 일산서구 대화동 2024-7GPS,경기도 고양시 일산서구 대화동 2024-7GPS,생활방범,5,41,360도전방면,30,,031-8075-2578,37.6832941536,126.7576834952,2018-01-01
경기도 고양시,경기도 고양시 일산서구 호수로838번길46,경기도 고양시 일산서구 대화동 2280,생활방범,5,41,360도전방면,30,,031-8075-2578,37.6714593547,126.7509669346,2018-01-01
경기도 고양시,경기도 고양시 일산서구 강성로214번길41-10 경로당,경기도 고양시 일산서구 대화동 2166,생활방범,5,41,360도전방면,30,,031-8075-2578,37.6769343306,126.7538503313,2018-01-01
경기도 고양시,경기도 고양시 일산서구 대화동 2235,경기도 고양시 일산서구 대화동 2235,생활방범,5,41,360도전방면,30,,031-8075-2578,37.6735478782,126.7459951196,2018-01-01
경기도 고양시,경기도 고양시 일산서구 성저로50번길23,경기도 고양시 일산서구 대화동 2065,생활방범,5,200,360도전방면,30,,031-8075-2578,37.6841782633,126.7539394821,2018-01-01
경기도 고양시,경기도 고양시 일산서구 일산로635번길24-24,경기도 고양시 일산서구 대화동 2108,생활방범,5,200,360도전방면,30,,031-8075-2578,37.6812377517,126.7566246583,2018-01-01
경기도 고양시,,경기도 고양시 덕양구 내곡동 298-7,차량방범,3,140,,30,,031-8075-2578,37.6332732449,126.8008752661,2018-01-01
경기도 고양시,,경기도 고양시 덕양구 내유동 680-2,차량방범,2,140,,30,,031-8075-2578,37.7263705604,126.8423426557,2018-01-01
경기도 고양시,,경기도 고양시 덕양구 벽제동 13-8,차량방범,3,140,,30,,031-8075-2578,37.7176848720,126.9206651810,2018-01-01
경기도 고양시,경기도 고양시 덕양구 오금동 291-2,경기도 고양시 덕양구 오금동 291-2,생활방범,4,200,360도전방면,30,,031-8075-2578,37.6605765425,126.9022779038,2018-01-01
경기도 고양시,경기도 고양시 덕양구 오금동 산 82-2,경기도 고양시 덕양구 오금동 산 82-2,생활방범,5,200,360도전방면,30,,031-8075-2578,37.6606284898,126.9107210053,2018-01-01
경기도 고양시,경기도 고양시 덕양구 오금동 113-2,경기도 고양시 덕양구 오금동 113-2,생활방범,4,200,360도전방면,30,,031-8075-2578,37.6616296008,126.9120570934,2018-01-01
경기도 고양시,경기도 고양시 덕양구 오금동 307-4,경기도 고양시 덕양구 오금동 307-4,생활방범,5,200,360도전방면,30,,031-8075-2578,37.6587120798,126.9029150579,2018-01-01
경기도 고양시,경기도 고양시 덕양구 오금동 152,경기도 고양시 덕양구 오금동 152,생활방범,5,200,360도전방면,30,,031-8075-2578,37.6588227308,126.9059521111,2018-01-01
경기도 고양시,경기도 고양시 덕양구 화수로25 화수초등학교,경기도 고양시 덕양구 화정동 860,생활방범,5,200,360도전방면,30,,031-8075-2578,37.6450179656,126.8326488325,2018-01-01
경기도 고양시,경기도 고양시 덕양구 은빛로77번길9,경기도 고양시 덕양구 화정동 877-10,생활방범,5,200,360도전방면,30,,031-8075-2578,37.6378244904,126.8363473801,2018-01-01
경기도 고양시,경기도 고양시 덕양구 화신로333 화정초등학교,경기도 고양시 덕양구 화정동 942,생활방범,5,200,360도전방면,30,,031-8075-2578,37.6335748869,126.8260134892,2018-01-01
경기도 고양시,경기도 고양시 덕양구 화신로272번길29 현대프라자,경기도 고양시 덕양구 화정동 983-1,생활방범,5,200,360도전방면,30,,031-8075-2578,37.6323031422,126.8311824380,2018-01-01
경기도 고양시,경기도 고양시 덕양구 화정동 1128,경기도 고양시 덕양구 화정동 1128,생활방범,5,200,360도전방면,30,,031-8075-2578,37.6289927951,126.8348151104,2018-01-01
경기도 고양시,경기도 고양시 덕양구 화정동 1136,경기도 고양시 덕양구 화정동 1136,생활방범,5,200,360도전방면,30,,031-8075-2578,37.6260545991,126.8340967433,2018-01-01
경기도 고양시,경기도 고양시 일산서구 일산로738 장성초등학교,경기도 고양시 일산서구 대화동 2210,생활방범,5,200,360도전방면,30,,031-8075-2578,37.6777098898,126.7499595973,2018-01-01
경기도 고양시,경기도 고양시 일산서구 대화동 2113,경기도 고양시 일산서구 대화동 2113,생활방범,5,200,360도전방면,30,,031-8075-2578,37.6800197052,126.7557898174,2018-01-01
경기도 고양시,경기도 고양시 일산서구 대화동 2314,경기도 고양시 일산서구 대화동 2314,생활방범,4,200,360도전방면,30,,031-8075-2578,37.6703209860,126.7372106212,2018-01-01
경기도 고양시,경기도 고양시 일산동구 풍동 433-3,경기도 고양시 일산동구 풍동 433-3,생활방범,5,200,360도전방면,30,,031-8075-2578,37.6596004022,126.7961574464,2018-01-01
경기도 고양시,경기도 고양시 일산동구 백석동 1260-4,경기도 고양시 일산동구 백석동 1260-4,생활방범,4,200,360도전방면,30,,031-8075-2578,37.6452714879,126.7891267643,2018-01-01
경기도 고양시,경기도 고양시 일산동구 장항동 618-6,경기도 고양시 일산동구 장항동 618-6,생활방범,4,200,360도전방면,30,,031-8075-2578,37.6357971728,126.7767143067,2018-01-01
경기도 고양시,경기도 고양시 일산서구 일산동 551-21,경기도 고양시 일산서구 일산동 551-21,생활방범,5,200,360도전방면,30,,031-8075-2578,37.6849034411,126.7739011413,2018-01-01
경기도 고양시,경기도 고양시 일산서구 덕이동 219-54,경기도 고양시 일산서구 덕이동 219-54,생활방범,4,200,360도전방면,30,,031-8075-2578,37.6895470727,126.7577989596,2018-01-01
경기도 고양시,,경기도 고양시 덕양구 주교동 238,차량방범,2,192,,30,,031-8075-2578,37.6592176786,126.8268139743,2018-01-01
경기도 고양시,경기도 고양시 일산서구 고양대로672번길12,경기도 고양시 일산서구 일산동 627-28GPS,생활방범,4,200,360도전방면,30,,031-8075-2578,37.6835719120,126.7702661901,2018-01-01
경기도 고양시,경기도 고양시 일산서구 원일로87-2,경기도 고양시 일산서구 일산동 592-27,생활방범,4,200,360도전방면,30,,031-8075-2578,37.6860166263,126.7718457296,2018-01-01
경기도 고양시,경기도 고양시 일산서구 일산동 1400,경기도 고양시 일산서구 일산동 1400,생활방범,3,200,360도전방면,30,,031-8075-2578,37.6798192312,126.7679086806,2018-01-01
경기도 고양시,경기도 고양시 일산서구 일중로108,경기도 고양시 일산서구 일산동 1847,생활방범,5,200,360도전방면,30,,031-8075-2578,37.6890126418,126.7743193296,2018-01-01
경기도 고양시,경기도 고양시 일산서구 일산동 1400,경기도 고양시 일산서구 일산동 1400,생활방범,5,200,360도전방면,30,,031-8075-2578,37.6798192312,126.7679086806,2018-01-01
경기도 고양시,경기도 고양시 덕양구 성사동 242-5,경기도 고양시 덕양구 성사동 242-5,생활방범,5,200,360도전방면,30,,031-8075-2578,37.6448278680,126.8518434858,2018-01-01
경기도 고양시,경기도 고양시 덕양구 성사동 685-22,경기도 고양시 덕양구 성사동 685-22,생활방범,4,200,360도전방면,30,,031-8075-2578,37.6556310256,126.8387554062,2018-01-01
경기도 고양시,경기도 고양시 덕양구 도내동 417-2,경기도 고양시 덕양구 도내동 417-2,생활방범,4,200,360도전방면,30,,031-8075-2578,37.6293267660,126.8707025899,2018-01-01
경기도 고양시,경기도 고양시 덕양구 도내동 48-1,경기도 고양시 덕양구 도내동 48-1,생활방범,4,200,360도전방면,30,,031-8075-2578,37.6285804499,126.8720406445,2018-01-01
경기도 고양시,,경기도 고양시 덕양구 내곡동 188-12,차량방범,1,192,,30,,031-8075-2578,37.6360771683,126.7967664429,2018-01-01
경기도 고양시,,경기도 고양시 일산동구 설문동 891,차량방범,3,140,,30,,031-8075-2578,37.7284236631,126.8006511231,2018-01-01
경기도 고양시,,경기도 고양시 일산동구 장항동 525-10,차량방범,3,140,,30,,031-8075-2578,37.6456894093,126.7628267160,2018-01-01
경기도 고양시,,경기도 고양시 일산동구 백석동 503-171,차량방범,2,200,,30,,031-8075-2578,37.6321067682,126.7932881483,2018-01-01
경기도 고양시,,경기도 고양시 일산서구 덕이동 1495-1,차량방범,2,200,,30,,031-8075-2578,37.7033995888,126.7311846761,2018-01-01
경기도 고양시,,경기도 고양시 덕양구 강매동 121-1,차량방범,1,700,,30,,031-8075-2578,37.6084704546,126.8426190541,2018-01-01
경기도 고양시,경기도 고양시 덕양구 덕은로48,경기도 고양시 덕양구 덕은동 224-2,차량방범,2,700,,30,,031-8075-2578,37.5856177062,126.8764521026,2018-01-01
경기도 고양시,,경기도 고양시 일산서구 대화동 1948-14,차량방범,1,700,,30,,031-8075-2578,37.6560783700,126.7419869852,2018-01-01
경기도 고양시,,경기도 고양시 일산서구 구산동 1015-8,차량방범,2,700,,30,,031-8075-2578,37.6930998973,126.7079679712,2018-01-01
경기도 고양시,,경기도 고양시 덕양구 오금동 44-18 오금천3교,차량방범,2,140,,30,,031-8075-2578,37.6642093599,126.9045510666,2018-01-01
경기도 고양시,경기도 고양시 덕양구 호국로 789번길 6,경기도 고양시 덕양구 주교동 615-6,교통단속,1,52,,30,,031-8075-2578,37.6569065810,126.8360327883,2018-01-01
경기도 고양시,경기도 고양시 덕양구 원당로 59번길 9,경기도 고양시 덕양구 주교동 599,교통단속,1,41,,30,,031-8075-2578,37.6582187624,126.8337633035,2018-01-01
경기도 고양시,경기도 고양시 덕양구 토당동 855,경기도 고양시 덕양구 토당동 855,생활방범,5,41,360도전방면,30,,031-8075-2578,37.6203583856,126.8205965208,2018-01-01
경기도 고양시,경기도 고양시 덕양구 지도로124번길8-32,경기도 고양시 덕양구 토당동 843-8,생활방범,5,41,360도전방면,30,,031-8075-2578,37.6264992418,126.8240138860,2018-01-01
경기도 고양시,경기도 고양시 덕양구 능곡로45번길34 오복빌라 108동,경기도 고양시 덕양구 토당동 36-28,생활방범,5,200,360도전방면,30,,031-8075-2578,37.6242192389,126.8236568667,2018-01-01
경기도 고양시,경기도 고양시 덕양구 행주로15번길45-5,경기도 고양시 덕양구 행주내동 99,생활방범,4,200,360도전방면,30,,031-8075-2578,37.5997536389,126.8268975763,2018-01-01
경기도 고양시,경기도 고양시 덕양구 행주산성로174,경기도 고양시 덕양구 행주외동 198-10,생활방범,5,200,360도전방면,30,,031-8075-2578,37.6014198780,126.8148447893,2018-01-01
경기도 고양시,경기도 고양시 덕양구 토당동 896,경기도 고양시 덕양구 토당동 896,생활방범,5,200,360도전방면,30,,031-8075-2578,37.6273308501,126.8258130530,2018-01-01
경기도 고양시,경기도 고양시 덕양구 화정동 943,경기도 고양시 덕양구 화정동 943,생활방범,5,200,360도전방면,30,,031-8075-2578,37.6324658623,126.8254610050,2018-01-01
경기도 고양시,경기도 고양시 덕양구 원흥동 490-8,경기도 고양시 덕양구 원흥동 490-8,생활방범,5,200,360도전방면,30,,031-8075-2578,37.6501900189,126.8678440719,2018-01-01
경기도 고양시,경기도 고양시 덕양구 원흥동 689-5,경기도 고양시 덕양구 원흥동 689-5,생활방범,5,200,360도전방면,30,,031-8075-2578,37.6491895767,126.8756192062,2018-01-01
경기도 고양시,경기도 고양시 덕양구 원흥동 334,경기도 고양시 덕양구 원흥동 334,생활방범,4,200,360도전방면,30,,031-8075-2578,37.6370278884,126.8687629290,2018-01-01
경기도 고양시,경기도 고양시 덕양구 삼송동 386-2,경기도 고양시 덕양구 삼송동 386-2,생활방범,5,200,360도전방면,30,,031-8075-2578,37.6473519557,126.8759509435,2018-01-01
경기도 고양시,경기도 고양시 덕양구 원흥동 58-11,경기도 고양시 덕양구 원흥동 58-11,생활방범,4,200,360도전방면,30,,031-8075-2578,37.6501929120,126.8786770065,2018-01-01
경기도 고양시,경기도 고양시 덕양구 행주로83번길53,경기도 고양시 덕양구 행주내동 501-6,생활방범,5,41,360도전방면,30,,031-8075-2578,37.6062223048,126.8207329458,2018-01-01
경기도 고양시,경기도 고양시 덕양구 오금동 12,경기도 고양시 덕양구 오금동 12,생활방범,4,200,360도전방면,30,,031-8075-2578,37.6674387665,126.9215593687,2018-01-01
경기도 고양시,경기도 고양시 덕양구 오금동 432-3,경기도 고양시 덕양구 오금동 432-3,생활방범,5,200,360도전방면,30,,031-8075-2578,37.6640235369,126.9207470732,2018-01-01
경기도 고양시,경기도 고양시 덕양구 오금동 산 98-4,경기도 고양시 덕양구 오금동 산 98-4,생활방범,5,200,360도전방면,30,,031-8075-2578,37.6592961482,126.9010896757,2018-01-01
경기도 고양시,,경기도 고양시 덕양구 신원동 675,교통단속,5,200,,30,,031-8075-2578,37.6628801253,126.8891733179,2018-01-01
경기도 고양시,,경기도 고양시 덕양구 신원동 674,교통단속,5,200,,30,,031-8075-2578,37.6651843806,126.8868917076,2018-01-01
경기도 고양시,경기도 고양시 덕양구 마상로107번길18,경기도 고양시 덕양구 주교동 576,생활방범,5,200,360도전방면,30,,031-8075-2578,37.6613215653,126.8362042390,2018-01-01
경기도 고양시,경기도 고양시 덕양구 원당로125번길40-6 주교2경로당,경기도 고양시 덕양구 주교동 557-5,생활방범,5,200,360도전방면,30,,031-8075-2578,37.6636570247,126.8375930461,2018-01-01
경기도 고양시,경기도 고양시 덕양구 원당로59번길33 유원빌,경기도 고양시 덕양구 주교동 598GPS,생활방범,4,200,360도전방면,30,,031-8075-2578,37.6588299028,126.8327079637,2018-01-01
경기도 고양시,경기도 고양시 덕양구 원당로101번길30 장수빌라 가동,경기도 고양시 덕양구 주교동 571-8GPS,생활방범,5,200,360도전방면,30,,031-8075-2578,37.6618260254,126.8361464447,2018-01-01
경기도 고양시,경기도 고양시 덕양구 호국로811번길36,경기도 고양시 덕양구 주교동 623-4,생활방범,4,200,360도전방면,30,,031-8075-2578,37.6592946188,126.8363674313,2018-01-01
경기도 고양시,경기도 고양시 덕양구 원당로69번길34,경기도 고양시 덕양구 주교동 582-10,생활방범,4,200,360도전방면,30,,031-8075-2578,37.6597140063,126.8335105864,2018-01-01
경기도 고양시,경기도 고양시 덕양구 원당동 산30-3,경기도 고양시 덕양구 원당동 산30-3,생활방범,4,200,360도전방면,30,,031-8075-2578,37.6755452758,126.8545357386,2018-01-01
경기도 고양시,경기도 고양시 일산동구 공릉천로33번길18,경기도 고양시 일산동구 사리현동 197-2,생활방범,4,200,360도전방면,30,,031-8075-2578,37.6969562622,126.8438461079,2018-01-01
경기도 고양시,경기도 고양시 일산동구 지영동 131,경기도 고양시 일산동구 지영동 131,생활방범,4,200,360도전방면,30,,031-8075-2578,37.7220675899,126.8320870148,2018-01-01
경기도 고양시,경기도 고양시 일산서구 일청로59번길20-1 일산시티타운 106동,경기도 고양시 일산서구 일산동 584-43,생활방범,3,41,360도전방면,30,,031-8075-2578,37.6892611364,126.7723798626,2018-01-01
경기도 고양시,경기도 고양시 일산서구 일산동 600-105,경기도 고양시 일산서구 일산동 600-105,생활방범,1,200,360도전방면,30,,031-8075-2578,37.6892378797,126.7697156341,2018-01-01
경기도 고양시,경기도 고양시 일산서구 일산동 655-361,경기도 고양시 일산서구 일산동 655-361,생활방범,5,200,360도전방면,30,,031-8075-2578,37.6834580147,126.7673530477,2018-01-01
경기도 고양시,경기도 고양시 일산서구 중앙로1471 문촌마을13단지아파트 1301동,경기도 고양시 일산서구 주엽동 136,교통단속,1,52,,30,,031-8075-2578,37.6714084212,126.7567138159,2018-01-01
경기도 고양시,경기도 고양시 일산서구 중앙로1470 문촌마을10단지아파트 1002동,경기도 고양시 일산서구 주엽동 17,교통단속,1,52,,30,,031-8075-2578,37.6723467410,126.7573454694,2018-01-01
경기도 고양시,경기도 고양시 일산서구 중앙로1376 강선마을10단지아파트 1001동,경기도 고양시 일산서구 주엽동 75,교통단속,1,41,,30,,031-8075-2578,37.6673210765,126.7670186899,2018-01-01
경기도 고양시,경기도 고양시 일산서구 중앙로1388 태영프라자,경기도 고양시 일산서구 주엽동 73,교통단속,1,52,,30,,031-8075-2578,37.6685431523,126.7654053521,2018-01-01
경기도 고양시,경기도 고양시 일산서구 주화로5 강선마을16단지 상가동,경기도 고양시 일산서구 주엽동 86,교통단속,5,200,,30,,031-8075-2578,37.6658483235,126.7649379146,2018-01-01
경기도 고양시,경기도 고양시 덕양구 토당동 890-6,경기도 고양시 덕양구 토당동 890-6,생활방범,4,200,360도전방면,30,,031-8075-2578,37.6193542242,126.8238157945,2018-01-01
경기도 고양시,경기도 고양시 일산동구 강송로225번길51,경기도 고양시 일산동구 마두동 992,생활방범,4,200,360도전방면,30,,031-8075-2578,37.6571899221,126.7786779631,2018-01-01
경기도 고양시,경기도 고양시 일산동구 산두로4-29,경기도 고양시 일산동구 마두동 915,생활방범,4,200,360도전방면,30,,031-8075-2578,37.6603795540,126.7884828023,2018-01-01
경기도 고양시,,경기도 고양시 덕양구 원흥동 693,교통단속,5,200,,30,,031-8075-2578,37.6528509696,126.8788652223,2018-01-01
경기도 고양시,,경기도 고양시 덕양구 원흥동 산31-13,교통단속,5,200,,30,,031-8075-2578,37.6494975462,126.8771484226,2018-01-01
경기도 고양시,,경기도 고양시 덕양구 원흥동 689-7,교통단속,5,200,,30,,031-8075-2578,37.6485766493,126.8753709639,2018-01-01
경기도 고양시,,경기도 고양시 덕양구 도내동 389,교통단속,5,200,,30,,031-8075-2578,37.6287744719,126.8683133022,2018-01-01
경기도 고양시,,경기도 고양시 덕양구 원흥동 471,교통단속,5,200,,30,,031-8075-2578,37.6492979571,126.8677550360,2018-01-01
경기도 고양시,경기도 고양시 일산서구 일현로 지하 97-27,경기도 고양시 일산서구 탄현동 1647,교통단속,5,130,,30,,031-8075-2578,37.6953478633,126.7614875166,2018-01-01
경기도 고양시,경기도 고양시 덕양구 삼송동 391,경기도 고양시 덕양구 삼송동 391,생활방범,4,200,360도전방면,30,,031-8075-2578,37.6492738560,126.8874830260,2018-01-01
경기도 고양시,경기도 고양시 덕양구 삼송동 산 47-1,경기도 고양시 덕양구 삼송동 산 47-1,생활방범,4,200,360도전방면,30,,031-8075-2578,37.6515240830,126.8852585248,2018-01-01
경기도 고양시,경기도 고양시 덕양구 동산동 394-2,경기도 고양시 덕양구 동산동 394-2,생활방범,4,200,360도전방면,30,,031-8075-2578,37.6456871999,126.8866727544,2018-01-01
경기도 고양시,경기도 고양시 덕양구 충장로 140,경기도 고양시 덕양구 행신동 943,교통단속,1,41,,30,,031-8075-2578,37.6246325687,126.8351534292,2018-01-01
경기도 고양시,경기도 고양시 덕양구 충장로 18,경기도 고양시 덕양구 행신동 761-6,교통단속,1,52,,30,,031-8075-2578,37.6142162797,126.8344293075,2018-01-01
경기도 고양시,경기도 고양시 덕양구 중앙로 555,경기도 고양시 덕양구 행신동 995,교통단속,1,41,,30,,031-8075-2578,37.6229932210,126.8354516247,2018-01-01
경기도 고양시,경기도 고양시 덕양구 충경로 48,경기도 고양시 덕양구 행신동 757,교통단속,1,41,,30,,031-8075-2578,37.6151359811,126.8349255857,2018-01-01
경기도 고양시,경기도 고양시 덕양구 충경로 30,경기도 고양시 덕양구 행신동 717,교통단속,1,52,,30,,031-8075-2578,37.6151331272,126.8329321809,2018-01-01
경기도 고양시,,경기도 고양시 덕양구 동산동 394,교통단속,5,200,,30,,031-8075-2578,37.6452188856,126.8868661071,2018-01-01
경기도 고양시,,경기도 고양시 덕양구 동산동 94-2,교통단속,5,200,,30,,031-8075-2578,37.6480204762,126.8959493710,2018-01-01
경기도 고양시,경기도 고양시 덕양구 충경로 44,경기도 고양시 덕양구 행신동 761,교통단속,1,41,,30,,031-8075-2578,37.6151893291,126.8344271125,2018-01-01
